City_ID,City,Lat,Lng,Max Temp,Humidity,Cloudiness,Wind Speed,Country,Date
0,nola,40.922,14.5329,12.740000000000009,94,100,3.47,IT,1669771747
1,pozo colorado,-23.4923,-58.7972,26.560000000000002,52,14,3.27,PY,1669771747
2,rikitea,-23.1203,-134.9692,22.439999999999998,72,68,6.14,PF,1669771747
3,qaanaaq,77.484,-69.3632,-27.359999999999985,81,19,2.79,GL,1669771748
4,gavirate,45.8401,8.7198,6.520000000000039,92,65,1.19,IT,1669771748
5,ribeira grande,38.5167,-28.7,16.54000000000002,90,17,0.89,PT,1669771748
6,albany,42.6001,-73.9662,0.910000000000025,77,100,1.69,US,1669771517
7,quatre cocos,-20.2078,57.7625,22.27000000000004,76,81,3.36,MU,1669771749
8,punta arenas,-53.15,-70.9167,8.060000000000002,61,75,10.29,CL,1669771749
9,georgetown,5.4112,100.3354,27.960000000000036,86,20,1.54,MY,1669771620
10,ushuaia,-54.8,-68.3,7.810000000000002,71,75,5.14,AR,1669771750
11,vaini,-21.2,-175.2,26.189999999999998,67,78,6.71,TO,1669771750
12,huarmey,-10.0681,-78.1522,20.0,83,77,3.05,PE,1669771751
13,yellowknife,62.456,-114.3525,-31.359999999999985,68,40,2.06,CA,1669771751
14,bakonyszentlaszlo,47.389,17.8032,1.4500000000000455,82,100,1.77,HU,1669771751
15,kapaa,22.0752,-159.319,27.99000000000001,78,0,4.12,US,1669771752
16,ostrovnoy,68.0531,39.5131,-3.67999999999995,97,79,7.37,RU,1669771752
17,busselton,-33.65,115.3333,28.160000000000025,29,0,5.71,AU,1669771752
18,huty,50.1332,35.3439,-1.579999999999984,45,100,6.53,UA,1669771753
19,alugan,12.2188,125.4808,28.939999999999998,73,97,6.41,PH,1669771753
20,ishinomaki,38.4167,141.3,15.0,71,100,9.1,JP,1669771753
21,linxia,35.6003,103.2064,-10.539999999999964,36,100,1.45,CN,1669771754
22,mahebourg,-20.4081,57.7,22.360000000000014,94,40,2.06,MU,1669771754
23,chokurdakh,70.6333,147.9167,-23.519999999999982,98,100,3.41,RU,1669771754
24,wewak,-3.5534,143.6268,29.189999999999998,71,98,1.19,PG,1669771754
25,lasa,46.6166,10.7002,-0.5399999999999636,94,65,2.06,IT,1669771755
26,vostok,46.4856,135.8833,-18.619999999999976,90,100,5.7,RU,1669771755
27,hilo,19.7297,-155.09,26.82000000000005,87,0,4.63,US,1669771755
28,mar del plata,-38.0023,-57.5575,19.49000000000001,94,75,3.09,AR,1669771520
29,berlevag,70.8578,29.0864,3.0,80,100,6.69,NO,1669771756
30,ierapetra,35.01,25.7353,15.080000000000041,85,100,0.89,GR,1669771601
31,kavaratti,10.5669,72.642,27.450000000000045,70,0,0.87,IN,1669771756
32,bambous virieux,-20.3428,57.7575,22.340000000000032,94,40,2.06,MU,1669771756
33,koumac,-20.5667,164.2833,31.460000000000036,59,68,3.65,NC,1669771757
34,collie,-33.3667,116.15,31.49000000000001,16,92,5.69,AU,1669771758
35,suwannaphum,15.6035,103.8021,27.55000000000001,73,100,1.13,TH,1669771758
36,rio grande,-32.035,-52.0986,20.950000000000045,90,0,7.09,BR,1669771758
37,mogadishu,2.0371,45.3438,26.430000000000007,75,69,6.65,SO,1669771714
38,cape town,-33.9258,18.4232,18.230000000000018,87,75,4.63,ZA,1669771600
39,sao filipe,14.8961,-24.4956,23.78000000000003,65,6,4.13,CV,1669771759
40,bethel,41.3712,-73.414,1.4600000000000364,85,0,1.54,US,1669771759
41,hithadhoo,-0.6,73.0833,27.360000000000014,74,100,3.22,MV,1669771760
42,royken,59.7475,10.3936,2.5600000000000023,1,100,0.66,NO,1669771760
43,jinji,23.2281,110.8261,13.610000000000014,87,100,4.12,CN,1669771760
44,graaff-reinet,-32.2522,24.5308,23.99000000000001,40,5,1.99,ZA,1669771761
45,oussouye,12.485,-16.5469,21.100000000000023,69,81,2.31,SN,1669771761
46,broome,42.2506,-75.833,2.890000000000043,79,0,5.14,US,1669771761
47,ratnagiri,16.9833,73.3,22.930000000000007,70,0,2.23,IN,1669771762
48,talnakh,69.4865,88.3972,-25.339999999999975,99,100,2.23,RU,1669771762
49,atuona,-9.8,-139.0333,25.400000000000034,72,8,6.4,PF,1669771762
50,thompson,55.7435,-97.8558,-16.909999999999968,71,100,7.2,CA,1669771762
51,mareeba,-17.0,145.4333,29.400000000000034,85,100,0.13,AU,1669771763
52,cobija,-11.0267,-68.7692,28.920000000000016,43,91,1.16,BO,1669771763
53,cookeville,36.1628,-85.5016,13.439999999999998,92,75,7.72,US,1669771763
54,new norfolk,-42.7826,147.0587,19.720000000000027,51,100,3.13,AU,1669771764
55,salinopolis,-0.6136,-47.3561,25.180000000000007,88,100,2.39,BR,1669771764
56,zaraza,9.3503,-65.3245,22.660000000000025,94,100,2.69,VE,1669771765
57,cedar city,37.6775,-113.0619,-3.109999999999957,33,0,1.54,US,1669771765
58,hobart,-42.8794,147.3294,19.920000000000016,57,75,10.8,AU,1669771765
59,port alfred,-33.5906,26.891,20.99000000000001,82,2,3.96,ZA,1669771766
60,bluff,-46.6,168.3333,15.450000000000045,70,54,5.66,NZ,1669771766
61,puerto ayora,-0.7393,-90.3518,21.420000000000016,87,51,4.02,EC,1669771766
62,esperance,-33.8667,121.9,23.150000000000034,45,100,6.2,AU,1669771766
63,belmonte,-15.8631,-38.8828,23.670000000000016,95,100,1.78,BR,1669771767
64,port elizabeth,-33.918,25.5701,21.840000000000032,76,0,2.57,ZA,1669771722
65,chara,56.9064,118.2631,-33.849999999999966,77,23,0.65,RU,1669771767
66,kruisfontein,-34.0033,24.7314,17.160000000000025,79,0,2.56,ZA,1669771768
67,port lincoln,-34.7333,135.8667,17.100000000000023,61,52,4.14,AU,1669771768
68,gurupa,-1.405,-51.64,23.25,97,100,1.49,BR,1669771768
69,ilulissat,69.2167,-51.1,-4.989999999999952,74,75,1.54,GL,1669771768
70,bredasdorp,-34.5322,20.0403,17.78000000000003,75,9,1.87,ZA,1669771487
71,cabo san lucas,22.8909,-109.9124,23.610000000000014,73,0,3.09,MX,1669771769
72,sinnamary,5.3833,-52.95,24.760000000000048,89,94,3.3,GF,1669771769
73,mataura,-46.1927,168.8643,15.270000000000039,56,97,3.84,NZ,1669771769
74,vila franca do campo,37.7167,-25.4333,18.230000000000018,82,88,1.87,PT,1669771769
75,mount gambier,-37.8333,140.7667,16.060000000000002,60,99,2.82,AU,1669771770
76,kavieng,-2.5744,150.7967,29.29000000000002,62,100,2.06,PG,1669771770
77,longyearbyen,78.2186,15.6401,1.910000000000025,80,75,7.2,SJ,1669771770
78,nikolskoye,59.7035,30.7861,-3.0600000000000023,90,100,2.26,RU,1669771771
79,laureles,26.1092,-97.4941,25.060000000000002,70,0,4.12,US,1669771771
80,kaitangata,-46.2817,169.8464,15.330000000000041,65,100,5.25,NZ,1669771772
81,hermanus,-34.4187,19.2345,16.560000000000002,90,5,2.54,ZA,1669771404
82,comodoro rivadavia,-45.8667,-67.5,10.920000000000016,58,0,3.6,AR,1669771772
83,tiksi,71.6872,128.8694,-34.40999999999997,100,80,0.71,RU,1669771773
84,arlit,18.7369,7.3853,19.82000000000005,24,5,3.59,NE,1669771773
85,dhangadhi,28.7079,80.5961,15.100000000000023,78,100,1.28,NP,1669771773
86,virginia beach,36.8529,-75.978,11.120000000000005,78,40,2.06,US,1669771774
87,brae,60.3964,-1.353,7.860000000000014,86,100,3.52,GB,1669771774
88,saint george,37.1041,-113.5841,8.330000000000041,26,0,2.06,US,1669771775
89,jamestown,42.097,-79.2353,7.770000000000039,83,0,5.81,US,1669771775
90,butaritari,3.0707,172.7902,27.100000000000023,76,13,4.57,KI,1669771775
91,kalmar,56.6616,16.3616,3.410000000000025,98,100,0.45,SE,1669771549
92,avarua,-21.2078,-159.775,27.03000000000003,74,75,6.69,CK,1669771564
93,carnarvon,-24.8667,113.6333,23.890000000000043,69,0,5.58,AU,1669771776
94,devonport,-41.1667,146.35,18.939999999999998,58,44,5.35,AU,1669771776
95,opuwo,-18.0607,13.84,23.420000000000016,40,69,0.61,NA,1669771777
96,geraldton,-28.7667,114.6,23.230000000000018,68,100,4.63,AU,1669771777
97,saint-philippe,-21.3585,55.7679,22.77000000000004,78,48,0.19,RE,1669771777
98,santa isabel do rio negro,-0.4139,-65.0192,25.77000000000004,77,79,1.04,BR,1669771778
99,grand forks,47.9417,-97.4337,-6.149999999999977,73,40,8.23,US,1669771778
100,faanui,-16.4833,-151.75,26.310000000000002,76,31,5.62,PF,1669771778
101,miyako,39.6367,141.9525,14.180000000000007,66,100,2.89,JP,1669771778
102,east london,-33.0153,27.9116,20.970000000000027,81,48,7.12,ZA,1669771779
103,grand gaube,-20.0064,57.6608,22.430000000000007,77,99,0.45,MU,1669771779
104,chimbote,-9.0853,-78.5783,20.07000000000005,80,48,2.83,PE,1669771779
105,khatanga,71.9667,102.5,-29.409999999999968,92,5,2.24,RU,1669771779
106,cherskiy,68.75,161.3,-24.25999999999999,96,99,3.01,RU,1669771780
107,bandarbeyla,9.4942,50.8122,24.650000000000034,72,4,6.31,SO,1669771780
108,acapulco,16.8634,-99.8901,25.900000000000034,78,75,1.03,MX,1669771781
109,kununurra,-15.7667,128.7333,34.99000000000001,29,100,7.72,AU,1669771781
110,samarai,-10.6167,150.6667,29.410000000000025,70,100,5.36,PG,1669771781
111,biskamzha,53.4497,89.5272,-24.359999999999985,96,74,1.03,RU,1669771782
112,pevek,69.7008,170.3133,-14.039999999999964,95,100,3.77,RU,1669771782
113,hobyo,5.3505,48.5268,26.230000000000018,72,92,7.13,SO,1669771782
114,nantucket,41.2835,-70.0995,7.060000000000002,79,100,2.06,US,1669771782
115,pilar,-9.5972,-35.9567,23.960000000000036,91,99,4.05,BR,1669771783
116,price,39.5994,-110.8107,-4.3799999999999955,42,0,4.12,US,1669771783
117,montepuez,-13.1256,38.9997,19.480000000000018,89,32,1.57,MZ,1669771783
118,barrow,71.2906,-156.7887,-15.989999999999952,78,100,5.66,US,1669771783
119,ucluelet,48.9329,-125.5528,2.2700000000000387,92,100,0.89,CA,1669771784
120,vilhena,-12.7406,-60.1458,23.810000000000002,63,94,1.57,BR,1669771784
121,lebu,-37.6167,-73.65,12.79000000000002,90,100,7.31,CL,1669771784
122,teguldet,57.3064,88.1667,-27.019999999999982,99,22,1.47,RU,1669771785
123,upernavik,72.7868,-56.1549,-14.579999999999984,96,100,6.6,GL,1669771539
124,malatya,38.5,38.0,5.03000000000003,100,100,0.0,TR,1669771658
125,vikhorevka,56.1201,101.1636,-19.22999999999999,91,100,4.53,RU,1669771785
126,batagay-alyta,67.8006,130.4114,-28.93999999999997,89,100,0.4,RU,1669771786
127,kerema,-7.9631,145.7785,29.54000000000002,69,81,2.81,PG,1669771786
128,san cristobal,7.7669,-72.225,19.100000000000023,98,100,1.87,VE,1669771786
129,sioux lookout,50.1001,-91.917,-6.9599999999999795,79,100,3.09,CA,1669771787
130,kpandu,6.9954,0.2931,24.79000000000002,83,11,2.55,GH,1669771787
131,whitianga,-36.8333,175.7,22.07000000000005,58,7,6.5,NZ,1669771787
132,mahenge,-8.6833,36.7167,17.670000000000016,91,69,1.38,TZ,1669771788
133,alofi,-19.0595,-169.9187,27.939999999999998,74,75,5.66,NU,1669771788
134,nome,64.5011,-165.4064,-7.9599999999999795,79,100,5.66,US,1669771712
135,pisco,-13.7,-76.2167,20.03000000000003,83,0,4.63,PE,1669771788
136,caravelas,-17.7125,-39.2481,24.100000000000023,83,100,5.26,BR,1669771789
137,axim,4.8699,-2.2405,25.640000000000043,83,100,0.92,GH,1669771789
138,saskylakh,71.9167,114.0833,-31.94999999999999,99,100,2.67,RU,1669771789
139,bengkulu,-3.8004,102.2655,25.04000000000002,88,100,1.62,ID,1669771790
140,dzhebariki-khaya,62.2167,135.8,-36.40999999999997,98,100,0.74,RU,1669771790
141,saint anthony,45.0205,-93.218,-5.979999999999961,78,75,8.75,US,1669771790
142,evensk,61.95,159.2333,-10.92999999999995,90,98,4.93,RU,1669771791
143,bereda,43.2686,-7.5406,6.990000000000009,98,100,0.83,ES,1669771791
144,ghanzi,-21.5667,21.7833,22.960000000000036,47,3,5.71,BW,1669771791
145,nuuk,64.1835,-51.7216,-5.310000000000002,87,100,4.71,GL,1669771792
146,narsaq,60.9167,-46.05,-1.8799999999999955,87,100,1.69,GL,1669771792
147,iqaluit,63.7506,-68.5145,-26.149999999999977,70,20,8.23,CA,1669771525
148,torbay,47.6666,-52.7314,-1.8999999999999773,74,75,5.66,CA,1669771792
149,saint-francois,46.4154,3.9054,5.689999999999998,93,100,2.57,FR,1669771792
150,arraial do cabo,-22.9661,-42.0278,22.920000000000016,91,90,9.58,BR,1669771793
151,sribne,50.6638,32.9187,-1.2199999999999704,57,100,5.63,UA,1669771793
152,chuy,-33.6971,-53.4616,18.939999999999998,88,0,4.83,UY,1669771793
153,saint-joseph,-21.3667,55.6167,22.210000000000036,78,26,0.22,RE,1669771794
154,tuatapere,-46.1333,167.6833,13.54000000000002,78,83,6.21,NZ,1669771794
155,pirgos,35.1167,25.7178,14.79000000000002,85,100,2.84,GR,1669771794
156,lorengau,-2.0226,147.2712,30.25,64,58,4.01,PG,1669771795
157,porto novo,6.4965,2.6036,26.900000000000034,84,50,1.95,BJ,1669771795
158,anadyr,64.75,177.4833,1.2800000000000296,80,20,4.0,RU,1669771795
159,rawson,-43.3002,-65.1023,12.439999999999998,68,48,6.88,AR,1669771796
160,burnie,-41.0667,145.9167,18.30000000000001,52,77,4.91,AU,1669771796
161,husavik,66.0449,-17.3389,1.4399999999999977,81,15,6.29,IS,1669771796
162,dharchula,29.85,80.5333,11.620000000000005,21,75,3.13,IN,1669771797
163,ranong,9.9658,98.6348,26.960000000000036,85,63,1.85,TH,1669771797
164,beringovskiy,63.05,179.3167,-0.5999999999999659,96,100,1.47,RU,1669771797
165,kaoma,-14.7833,24.8,16.730000000000018,96,97,2.12,ZM,1669771797
166,pontes e lacerda,-15.2261,-59.3353,25.879999999999995,49,17,1.18,BR,1669771798
167,calamar,10.2511,-74.9146,24.27000000000004,90,100,2.02,CO,1669771798
168,urumqi,43.801,87.6005,-23.46999999999997,77,0,1.0,CN,1669771798
169,lompoc,34.6391,-120.4579,13.340000000000032,77,0,2.57,US,1669771628
170,airai,-8.9266,125.4092,21.510000000000048,61,96,1.04,TL,1669771799
171,bontang,0.1333,117.5,27.140000000000043,81,100,0.57,ID,1669771799
172,lixourion,38.2019,20.4314,12.400000000000034,83,100,7.43,GR,1669771799
173,naryan-mar,67.6713,53.087,-13.289999999999964,98,69,2.3,RU,1669771800
174,hambantota,6.1241,81.1185,22.189999999999998,100,14,1.54,LK,1669771800
175,victoria,22.2855,114.1577,26.25,86,12,8.05,HK,1669771742
176,mahalapye,-23.1041,26.8142,18.33000000000004,58,0,4.4,BW,1669771801
177,kahului,20.8947,-156.47,27.760000000000048,81,40,4.12,US,1669771801
178,camacari,-12.6975,-38.3242,24.870000000000005,90,100,2.31,BR,1669771802
179,camacha,33.0833,-16.3333,14.680000000000007,67,75,1.54,PT,1669771804
180,clyde river,70.4692,-68.5914,-30.869999999999976,69,0,3.6,CA,1669771808
181,zhuhai,22.2769,113.5678,23.879999999999995,88,40,7.72,CN,1669771565
182,paciran,-6.8767,112.3761,28.430000000000007,72,98,4.55,ID,1669771813
183,asifabad,19.3667,79.2833,16.74000000000001,64,0,1.62,IN,1669771821
184,kenai,60.5544,-151.2583,-15.96999999999997,92,0,1.54,US,1669771673
185,castro,-24.7911,-50.0119,15.560000000000002,95,100,3.12,BR,1669771823
186,aklavik,68.2191,-135.0107,-26.339999999999975,87,100,0.99,CA,1669771823
187,concepcion del oro,24.6333,-101.4167,14.400000000000034,28,46,0.89,MX,1669771824
188,poum,-20.2333,164.0167,27.77000000000004,78,100,5.0,NC,1669771824
189,ayan,56.45,138.1667,-22.68999999999997,94,100,12.86,RU,1669771825
190,ust-nera,64.5667,143.2,-27.72999999999999,100,99,2.81,RU,1669771825
191,nguru,12.8791,10.4526,17.100000000000023,27,53,3.76,NG,1669771826
192,krasnaya gorka,55.1962,56.6673,-19.919999999999987,99,63,0.68,RU,1669771826
193,arequipa,-16.3989,-71.535,13.04000000000002,76,0,1.54,PE,1669771574
194,sorong,-0.8833,131.25,27.24000000000001,75,100,1.42,ID,1669771827
195,luderitz,-26.6481,15.1594,15.580000000000041,91,0,4.0,NA,1669771827
196,yuanping,38.7153,112.7575,-10.589999999999975,16,0,3.17,CN,1669771827
197,olinda,-8.0089,-34.8553,26.850000000000023,69,75,2.57,BR,1669771828
198,dutlwe,-23.9833,23.9,20.75,51,4,4.45,BW,1669771828
199,cabo rojo,18.0866,-67.1457,26.100000000000023,91,4,2.81,PR,1669771828
200,coquimbo,-29.9533,-71.3436,16.850000000000023,82,100,2.06,CL,1669771590
201,rzhaksa,52.1338,42.0264,-6.139999999999986,66,61,3.08,RU,1669771829
202,avera,33.194,-82.5271,17.430000000000007,67,26,3.91,US,1669771829
203,oskarshamn,57.2645,16.4484,3.32000000000005,80,100,3.3,SE,1669771830
204,fairbanks,64.8378,-147.7164,-22.99999999999997,78,20,0.0,US,1669771830
205,ancud,-41.8697,-73.8203,8.730000000000018,72,6,2.14,CL,1669771830
206,noumea,-22.2763,166.4572,30.99000000000001,99,65,3.62,NC,1669771831
207,boende,-0.2167,20.8667,20.75,100,100,0.88,CD,1669771831
208,atambua,-9.1061,124.8925,28.33000000000004,64,83,1.85,ID,1669771832
209,ponta do sol,32.6667,-17.1,17.620000000000005,74,12,2.34,PT,1669771832
210,kodiak,57.79,-152.4072,-1.2699999999999818,55,0,5.14,US,1669771832
211,coahuayana,18.7333,-103.6833,23.120000000000005,87,9,0.1,MX,1669771832
212,biak,-0.9131,122.8766,28.900000000000034,64,100,0.69,ID,1669771833
213,juazeiro,-9.4117,-40.4986,22.100000000000023,94,75,1.54,BR,1669771833
214,bathsheba,13.2167,-59.5167,26.340000000000032,78,40,6.69,BB,1669771834
215,prince rupert,54.3161,-130.3201,-3.169999999999959,46,0,5.66,CA,1669771834
216,kholm,59.2667,32.85,-5.359999999999957,84,100,2.6,RU,1669771834
217,quang ngai,15.1167,108.8,27.27000000000004,74,6,0.66,VN,1669771834
218,blagoyevo,63.3667,47.9167,-4.849999999999966,97,100,1.98,RU,1669771835
219,codrington,-38.2667,141.9667,16.090000000000032,67,100,5.36,AU,1669771835
220,kuybysheve,47.358,36.6491,-1.8999999999999773,46,99,9.21,UA,1669771836
221,awjilah,29.1081,21.2869,14.580000000000041,53,0,4.25,LY,1669771836
222,norman wells,65.282,-126.8329,-35.97999999999999,68,75,0.0,CA,1669771837
223,laguna,38.421,-121.4238,13.050000000000011,45,0,0.0,US,1669771837
224,alta floresta,-9.8756,-56.0861,20.640000000000043,98,94,1.66,BR,1669771837
225,saldanha,-33.0117,17.9442,18.03000000000003,96,39,1.32,ZA,1669771838
226,cumana,10.4635,-64.1775,24.850000000000023,86,15,4.39,VE,1669771838
227,coos bay,43.3665,-124.2179,7.860000000000014,97,100,2.57,US,1669771838
228,qaqortoq,60.7167,-46.0333,-2.419999999999959,86,100,0.89,GL,1669771838
229,mahoba,25.2833,79.8667,16.379999999999995,58,100,0.39,IN,1669771839
230,sayyan,15.1718,44.3244,7.840000000000032,46,0,1.7,YE,1669771840
231,hervey bay,-25.2986,152.8535,21.060000000000002,88,100,11.97,AU,1669771840
232,inhambane,-23.865,35.3833,19.730000000000018,66,5,4.13,MZ,1669771841
233,faya,18.3851,42.4509,11.060000000000002,68,0,0.08,SA,1669771842
234,saint-pierre,-21.3393,55.4781,22.82000000000005,68,0,2.57,RE,1669771842
235,mandalgovi,45.7625,106.2708,-19.089999999999975,50,0,2.81,MN,1669771842
236,hualmay,-11.0964,-77.6139,19.890000000000043,81,100,3.74,PE,1669771843
237,denia,38.8408,0.1057,15.82000000000005,51,100,1.34,ES,1669771632
238,bambanglipuro,-7.95,110.2833,26.120000000000005,79,100,2.32,ID,1669771844
239,orangeville,43.9168,-80.0997,5.32000000000005,92,99,5.94,CA,1669771844
240,abu dhabi,24.4667,54.3667,24.010000000000048,83,0,1.03,AE,1669771743
241,taoudenni,22.6783,-3.9836,16.840000000000032,19,0,4.81,ML,1669771844
242,byron bay,-28.65,153.6167,22.75,57,100,7.34,AU,1669771463
243,bilibino,68.0546,166.4372,-15.549999999999955,98,100,1.75,RU,1669771845
244,lata,40.1629,-8.3327,6.710000000000036,94,17,1.19,PT,1669771845
245,uruzgan,32.8333,66.0,6.310000000000002,34,6,1.23,AF,1669771846
246,kerouane,9.2667,-9.0167,22.30000000000001,50,79,1.07,GN,1669771846
247,kushima,31.4583,131.2333,16.370000000000005,83,100,4.77,JP,1669771847
248,vanimo,-2.6741,141.3028,29.77000000000004,65,100,1.29,PG,1669771847
249,sungairaya,0.7,108.9,30.390000000000043,65,93,1.4,ID,1669771847
250,biu,10.6129,12.1946,16.55000000000001,36,24,2.85,NG,1669771848
251,college,64.8569,-147.8028,-23.00999999999999,78,40,0.0,US,1669771849
252,isangel,-19.55,169.2667,30.060000000000002,74,53,1.54,VU,1669771849
253,baie-comeau,49.2168,-68.1489,-9.17999999999995,73,0,2.57,CA,1669771850
254,richards bay,-28.783,32.0377,17.450000000000045,81,0,2.83,ZA,1669771850
255,hirara,24.8,125.2833,22.150000000000034,94,75,12.86,JP,1669771850
256,krasnogorsk,55.8225,37.3181,-11.810000000000002,85,44,3.0,RU,1669771795
257,ponta delgada,37.7333,-25.6667,18.400000000000034,88,75,3.6,PT,1669771851
258,vao,-22.6667,167.4833,26.160000000000025,83,82,2.72,NC,1669771851
259,riyadh,24.6877,46.7219,15.080000000000041,35,5,3.43,SA,1669771385
260,alice springs,-23.7,133.8833,25.75,22,0,7.2,AU,1669771852
261,henties bay,-22.116,14.2845,15.510000000000048,87,68,3.21,NA,1669771852
262,severo-kurilsk,50.6789,156.125,4.4500000000000455,99,100,4.23,RU,1669771853
263,okhotsk,59.3833,143.3,-13.529999999999973,86,100,13.17,RU,1669771853
264,northam,51.0333,-4.2167,6.25,90,99,4.35,GB,1669771854
265,huilong,31.8111,121.655,6.8700000000000045,68,99,8.9,CN,1669771854
266,lemon tree passage,-32.7327,152.036,23.390000000000043,52,56,4.92,AU,1669771854
267,lianzhou,24.7811,112.3825,6.990000000000009,89,100,3.45,CN,1669771855
268,dikson,73.5069,80.5464,-16.989999999999952,100,96,1.81,RU,1669771855
269,verrettes,19.05,-72.4667,22.960000000000036,88,8,1.61,HT,1669771856
270,skibbereen,51.55,-9.2667,11.170000000000016,97,100,7.48,IE,1669771856
271,yerbogachen,61.2767,108.0108,-19.50999999999999,97,100,4.4,RU,1669771856
272,lohja,60.2486,24.0653,1.080000000000041,100,100,1.42,FI,1669771857
273,mitsamiouli,-11.3847,43.2844,25.24000000000001,78,39,3.22,KM,1669771857
274,san patricio,28.017,-97.5169,22.920000000000016,92,3,2.14,US,1669771858
275,sangar,63.9242,127.4739,-40.43999999999997,99,100,0.43,RU,1669771613
276,cayenne,4.9333,-52.3333,23.02000000000004,94,100,1.03,GF,1669771693
277,whitehorse,60.7161,-135.0538,-19.569999999999965,71,75,3.09,CA,1669771858
278,yar-sale,66.8333,70.8333,-19.919999999999987,100,87,0.49,RU,1669771859
279,hay river,60.8156,-115.7999,-24.00999999999999,77,40,7.72,CA,1669771859
280,dakar,14.6937,-17.4441,24.07000000000005,83,0,1.03,SN,1669771702
281,tuktoyaktuk,69.4541,-133.0374,-17.99999999999997,85,100,7.2,CA,1669771860
282,ixtapa,20.7,-105.2,24.57000000000005,69,20,0.0,MX,1669771860
283,tiznit,29.5833,-9.5,14.200000000000045,35,0,0.14,MA,1669771860
284,sampit,-2.5333,112.95,30.02000000000004,65,77,1.87,ID,1669771861
285,wanning,18.8003,110.3967,27.30000000000001,75,4,2.86,CN,1669771861
286,aripuana,-9.1667,-60.6333,24.920000000000016,72,96,1.29,BR,1669771862
287,kijang,35.2442,129.2139,2.8500000000000227,25,100,2.54,KR,1669771862
288,sur,22.5667,59.5289,23.960000000000036,59,1,3.05,OM,1669771863
289,yagoua,10.3411,15.2329,20.08000000000004,27,17,3.42,CM,1669771863
290,visakhapatnam,17.69,83.2093,19.939999999999998,100,5,1.03,IN,1669771864
291,provideniya,64.3833,-173.3,0.20000000000004547,93,100,6.0,RU,1669771855
292,atasu,48.6814,71.6433,-12.239999999999952,71,100,5.43,KZ,1669771865
293,tatawin,32.9297,10.4518,10.53000000000003,64,2,3.4,TN,1669771865
294,dori,14.0354,-0.0345,22.900000000000034,16,10,3.96,BF,1669771866
295,constitucion,-35.3333,-72.4167,12.660000000000025,94,20,4.63,CL,1669771867
296,sola,-13.8833,167.55,30.370000000000005,70,68,0.0,VU,1669771867
297,teahupoo,-17.8333,-149.2667,25.980000000000018,81,28,4.84,PF,1669771868
298,leningradskiy,69.3833,178.4167,-4.3700000000000045,81,100,3.21,RU,1669771868
299,kaputa,-8.4689,29.6619,20.02000000000004,89,100,0.43,ZM,1669771868
300,ongandjera,-17.8833,15.0667,24.340000000000032,37,100,3.89,NA,1669771869
301,jutai,-5.1833,-68.9,22.450000000000045,98,95,1.38,BR,1669771869
302,flin flon,54.7682,-101.865,-17.529999999999973,91,100,6.33,CA,1669771870
303,pemba,-12.974,40.5178,24.54000000000002,80,15,1.18,MZ,1669771870
304,tucurui,-3.7661,-49.6725,23.600000000000023,89,100,1.1,BR,1669771870
305,tasiilaq,65.6145,-37.6368,3.090000000000032,88,100,16.92,GL,1669771871
306,tari,12.4086,4.4914,20.379999999999995,28,6,4.3,NG,1669771871
307,puerto madero,14.7208,-92.4215,23.110000000000014,100,100,0.0,MX,1669771871
308,vila velha,-20.3297,-40.2925,22.970000000000027,94,100,5.14,BR,1669771871
309,fortuna,40.5982,-124.1573,8.189999999999998,82,0,3.09,US,1669771872
310,xining,36.6167,101.7667,-11.25,41,100,1.35,CN,1669771872
311,gat,31.61,34.7642,16.890000000000043,100,2,2.42,IL,1669771873
312,vestmannaeyjar,63.4427,-20.2734,8.490000000000009,90,100,15.53,IS,1669771873
313,silikatnyy,53.9896,48.3275,-9.849999999999966,95,79,1.83,RU,1669771874
314,souillac,-20.5167,57.5167,22.210000000000036,94,40,2.06,MU,1669771822
315,saint-augustin,51.226,-58.6502,-12.169999999999959,79,8,5.91,CA,1669771875
316,ramanuj ganj,23.8,83.7,14.980000000000018,58,1,0.8,IN,1669771875
317,sheltozero,61.3667,35.3667,-5.739999999999952,89,86,2.43,RU,1669771876
318,sinjar,36.3209,41.8754,14.360000000000014,75,100,4.9,IQ,1669771876
319,pochutla,15.7432,-96.4661,26.57000000000005,86,86,0.86,MX,1669771876
320,cajamarca,-7.1638,-78.5003,11.650000000000034,89,98,1.8,PE,1669771877
321,egvekinot,66.3167,-179.1667,-3.9599999999999795,100,100,2.58,RU,1669771877
322,mount isa,-20.7333,139.5,33.870000000000005,15,0,8.23,AU,1669771877
323,touros,-5.1989,-35.4608,26.650000000000034,65,96,4.24,BR,1669771878
324,nikolayevka,53.1257,47.2041,-10.95999999999998,98,72,1.28,RU,1669771879
325,port blair,11.6667,92.75,28.08000000000004,77,81,3.23,IN,1669771880
326,oistins,13.0667,-59.5333,26.05000000000001,78,40,6.69,BB,1669771880
327,muscat,23.6139,58.5922,23.010000000000048,49,36,1.95,OM,1669771593
328,portland,45.5234,-122.6762,6.010000000000048,94,100,4.12,US,1669771826
329,valparaiso,-33.0393,-71.6273,16.80000000000001,82,100,2.06,CL,1669771782
330,verkhnevilyuysk,63.4453,120.3167,-30.70999999999998,97,99,2.63,RU,1669771882
331,coihaique,-45.5752,-72.0662,8.970000000000027,57,20,1.54,CL,1669771882
332,oil city,41.4339,-79.7064,8.580000000000041,77,0,4.63,US,1669771882
333,kitimat,54.0524,-128.6534,-6.71999999999997,54,99,3.87,CA,1669771883
334,iberia,29.9502,-91.7507,25.04000000000002,88,100,6.17,US,1669771883
335,kosh-agach,50.0,88.6667,-26.279999999999973,73,14,1.45,RU,1669771883
336,tabas,33.5959,56.9244,13.03000000000003,37,99,1.01,IR,1669771884
337,vila do maio,15.1333,-23.2167,23.439999999999998,69,2,6.73,CV,1669771884
338,vardo,70.3705,31.1107,0.9900000000000091,80,40,10.8,NO,1669771884
339,sattenapalle,16.4,80.1833,20.140000000000043,83,7,0.95,IN,1669771885
340,emerald,-23.5333,148.1667,20.75,96,100,5.55,AU,1669771885
341,mecca,21.4267,39.8261,24.49000000000001,67,7,2.48,SA,1669771885
342,healdsburg,38.6105,-122.8692,12.230000000000018,57,0,2.06,US,1669771706
343,wad rawah,15.1603,33.1397,25.99000000000001,20,2,6.25,SD,1669771886
344,port hardy,50.6996,-127.4199,0.10000000000002274,100,100,16.98,CA,1669771887
345,pimenta bueno,-11.6725,-61.1936,24.220000000000027,77,96,1.89,BR,1669771887
346,jaguaruna,-28.615,-49.0256,20.200000000000045,96,95,3.33,BR,1669771887
347,rio gallegos,-51.6226,-69.2181,9.03000000000003,46,75,8.75,AR,1669771888
348,steinbach,50.1667,8.5667,7.560000000000002,100,100,0.51,DE,1669771888
349,bilma,18.6853,12.9164,16.07000000000005,41,0,3.49,NE,1669771888
350,my tho,10.35,106.35,28.28000000000003,69,68,2.44,VN,1669771889
351,grindavik,63.8424,-22.4338,8.260000000000048,93,100,15.43,IS,1669771889
352,kaeo,-35.1,173.7833,25.74000000000001,77,15,6.22,NZ,1669771890
353,lezajsk,50.2626,22.4193,1.2300000000000182,89,18,3.63,PL,1669771735
354,okato,-39.2,173.8833,15.840000000000032,91,100,6.89,NZ,1669771890
355,pakpattan,30.341,73.3866,14.590000000000032,35,0,1.04,PK,1669771890
356,russell,32.3502,-85.1999,19.78000000000003,82,20,3.09,US,1669771892
357,dongsheng,39.8161,109.9776,-15.589999999999975,20,1,5.61,CN,1669771849
358,san felipe,10.3399,-68.7425,21.390000000000043,98,97,1.06,VE,1669771893
359,bowen,-20.0167,148.2333,26.400000000000034,78,100,1.52,AU,1669771894
360,necochea,-38.5473,-58.7368,18.560000000000002,93,100,2.07,AR,1669771894
361,maraa,-1.8333,-65.3667,23.410000000000025,95,26,0.72,BR,1669771895
362,sindor,62.8629,51.8905,-8.319999999999993,97,100,1.49,RU,1669771895
363,karratha,-20.7377,116.8463,33.06,30,21,2.59,AU,1669771896
364,bogande,12.9714,-0.1436,22.970000000000027,18,16,3.39,BF,1669771896
365,yining,29.0361,114.5636,2.160000000000025,91,100,2.49,CN,1669771897
366,guara,-20.4283,-47.8242,17.950000000000045,93,53,1.14,BR,1669771897
367,tignere,7.3667,12.65,18.03000000000003,38,84,1.25,CM,1669771898
368,cururupu,-1.8283,-44.8683,23.660000000000025,92,100,0.6,BR,1669771898
369,crestview,30.7621,-86.5705,22.420000000000016,87,20,5.14,US,1669771899
370,nouakchott,18.0858,-15.9785,22.590000000000032,32,0,5.36,MR,1669771900
371,port-gentil,-0.7193,8.7815,25.55000000000001,81,100,2.89,GA,1669771901
372,sao joao da barra,-21.6403,-41.0511,23.30000000000001,90,100,8.41,BR,1669771902
373,soyo,-6.1349,12.3689,23.480000000000018,93,100,3.24,AO,1669771902
374,grandola,38.1772,-8.5668,9.640000000000043,91,20,1.02,PT,1669771903
375,kidal,18.4411,1.4078,21.150000000000034,19,100,0.74,ML,1669771903
376,muros,42.7762,-9.0603,12.830000000000041,83,100,7.5,ES,1669771903
377,potenza,40.6443,15.8086,7.180000000000007,93,100,0.89,IT,1669771893
378,cheremkhovo,53.1561,103.0675,-17.039999999999964,90,100,6.65,RU,1669771904
379,bonavista,48.6499,-53.1147,-3.509999999999991,74,99,10.6,CA,1669771905
380,murdochville,48.9583,-65.5006,-7.509999999999991,97,6,1.52,CA,1669771905
381,la palma,33.8464,-118.0467,17.100000000000023,76,20,2.57,US,1669771906
382,nemuro,43.3236,145.575,3.180000000000007,78,100,5.79,JP,1669771906
383,aksu,41.1231,80.2644,-10.289999999999964,18,0,0.78,CN,1669771906
384,la ronge,55.1001,-105.2842,-20.859999999999985,71,20,4.63,CA,1669771907
385,sistranda,63.7256,8.834,3.980000000000018,81,100,2.84,NO,1669771907
386,baruun-urt,46.6806,113.2792,-19.599999999999966,71,44,7.26,MN,1669771907
387,tshela,-4.9833,12.9333,21.730000000000018,99,100,0.81,CD,1669771908
388,balaipungut,1.05,101.2833,26.390000000000043,87,96,0.57,ID,1669771908
389,nelson bay,-32.7167,152.15,21.110000000000014,55,35,4.87,AU,1669771909
390,nanortalik,60.1432,-45.2371,-0.21999999999997044,84,100,5.69,GL,1669771909
391,jinchang,38.4953,102.1739,-11.889999999999986,47,19,0.74,CN,1669771910
392,mezen,65.8522,44.24,-1.849999999999966,97,100,2.23,RU,1669771910
393,dashitou,43.3067,128.5114,-18.269999999999982,73,97,8.09,CN,1669771911
394,yulara,-25.2406,130.9889,27.54000000000002,19,0,4.52,AU,1669771912
395,zhovtneve,50.6637,24.2492,0.9200000000000159,99,100,2.9,UA,1669771912
396,farafangana,-22.8167,47.8333,23.5,89,100,2.64,MG,1669771912
397,marsabit,2.3284,37.9899,17.810000000000002,81,45,6.46,KE,1669771912
398,severobaykalsk,55.65,109.3167,-24.549999999999983,81,48,1.88,RU,1669771823
399,usinsk,65.9939,57.5281,-11.339999999999975,96,100,2.87,RU,1669771913
400,rocha,-34.4833,-54.3333,17.28000000000003,92,0,4.89,UY,1669771914
401,polson,47.6936,-114.1632,-10.67999999999995,75,100,0.24,US,1669771914
402,hamilton,39.1834,-84.5333,15.430000000000007,62,40,7.2,US,1669771794
403,puerto madryn,-42.7692,-65.0385,13.260000000000048,67,19,7.76,AR,1669771915
404,tukan,53.8409,57.4552,-16.319999999999993,97,76,1.19,RU,1669771916
405,ngunguru,-35.6167,174.5,22.08000000000004,59,75,5.71,NZ,1669771916
406,cidreira,-30.1811,-50.2056,21.510000000000048,90,41,7.18,BR,1669771917
407,villa bruzual,9.3328,-69.1208,22.720000000000027,87,44,3.58,VE,1669771917
408,honiara,-9.4333,159.95,29.170000000000016,74,82,2.23,SB,1669771918
409,robertsport,6.7533,-11.3686,26.140000000000043,79,12,1.95,LR,1669771918
410,lerwick,60.1545,-1.1494,9.0,84,100,4.98,GB,1669771918
411,port keats,-14.25,129.55,34.160000000000025,42,18,3.3,AU,1669771919
412,yarensk,62.1675,49.0916,-6.349999999999966,96,100,1.94,RU,1669771920
413,harij,23.7,71.9,17.760000000000048,41,32,2.9,IN,1669771920
414,luanda,-8.8368,13.2343,26.0,89,75,1.54,AO,1669771921
415,suraabad,40.8192,49.4687,8.170000000000016,73,100,8.58,AZ,1669771921
416,kremenchuk,49.0973,33.4197,-0.45999999999997954,51,100,5.49,UA,1669771806
417,cuamba,-14.8031,36.5372,20.420000000000016,85,100,1.13,MZ,1669771922
418,srednekolymsk,67.45,153.6833,-27.99999999999997,96,97,3.84,RU,1669771922
419,verkhoyansk,67.5447,133.385,-31.70999999999998,97,100,0.78,RU,1669771922
420,blairmore,49.6,-114.4353,-16.16999999999996,78,100,2.06,CA,1669771923
421,nouadhibou,20.931,-17.0347,17.99000000000001,68,0,6.17,MR,1669771923
422,waingapu,-9.6567,120.2641,30.160000000000025,61,35,2.53,ID,1669771924
423,lingao,19.9103,109.6859,26.310000000000002,79,0,5.59,CN,1669771924
424,guerrero negro,27.9769,-114.0611,15.730000000000018,71,32,4.55,MX,1669771924
425,coro,11.4045,-69.6734,24.75,86,100,3.25,VE,1669771924
426,shenjiamen,29.9576,122.298,10.450000000000045,78,100,12.0,CN,1669771925
427,san lorenzo,-25.3333,-57.5333,26.52000000000004,61,0,2.06,PY,1669771925
428,doha,25.2867,51.5333,22.99000000000001,80,0,1.03,QA,1669771728
429,borogontsy,62.6683,131.1683,-38.22999999999999,96,100,2.25,RU,1669771926
430,linares,-35.85,-71.6,15.010000000000048,55,79,2.14,CL,1669771926
431,sao gabriel da cachoeira,-0.1303,-67.0892,23.100000000000023,98,100,0.75,BR,1669771926
432,tura,25.5198,90.2201,19.82000000000005,76,0,1.02,IN,1669771926
433,conceicao do mato dentro,-19.0372,-43.425,18.170000000000016,97,15,0.28,BR,1669771927
434,ananas,19.2466,-71.9557,19.910000000000025,94,31,2.25,HT,1669771928
435,poya,-21.35,165.15,29.53000000000003,65,78,1.6,NC,1669771928
436,lagoa,39.05,-27.9833,16.689999999999998,71,100,4.29,PT,1669771929
437,ulaangom,49.9811,92.0667,-26.779999999999973,87,36,1.69,MN,1669771930
438,mason city,43.1536,-93.201,-5.92999999999995,78,0,9.77,US,1669771930
439,bulawayo,-20.15,28.5833,13.78000000000003,80,0,3.75,ZW,1669771932
440,berbera,10.4396,45.0143,24.410000000000025,71,6,1.91,SO,1669771932
441,longonjo,-12.9067,15.2533,16.370000000000005,96,100,0.91,AO,1669771933
442,plettenberg bay,-34.0527,23.3716,18.58000000000004,74,4,2.26,ZA,1669771933
443,tucumcari,35.1717,-103.725,-2.089999999999975,64,0,5.66,US,1669771934
444,igarka,67.4667,86.5833,-20.399999999999977,100,100,1.57,RU,1669771934
445,chapais,49.7834,-74.8492,-10.120000000000005,91,100,4.48,CA,1669771935
446,tezu,27.9167,96.1667,21.80000000000001,40,1,0.6,IN,1669771935
447,peniche,39.3558,-9.3811,10.310000000000002,93,40,2.23,PT,1669771936
448,matara,5.9485,80.5353,24.55000000000001,87,29,1.87,LK,1669771936
449,taiping,4.85,100.7333,25.680000000000007,80,85,0.6,MY,1669771936
450,kalianget,-7.05,113.9333,28.29000000000002,71,100,0.93,ID,1669771937
451,magadan,59.5667,150.8,-7.479999999999961,91,100,19.0,RU,1669771820
452,namatanai,-3.6667,152.4333,29.660000000000025,66,100,2.11,PG,1669771938
453,deputatskiy,69.3,139.9,-27.829999999999984,99,100,1.09,RU,1669771939
454,karwar,14.8,74.1333,23.890000000000043,75,62,3.12,IN,1669771939
455,caninde,-4.3589,-39.3117,25.340000000000032,76,100,2.16,BR,1669771939
456,kloulklubed,7.0419,134.2556,29.28000000000003,77,96,9.76,PW,1669771939
457,olhao,37.0286,-7.8411,11.830000000000041,79,0,3.09,PT,1669771808
458,istok,42.7808,20.4875,4.580000000000041,88,100,0.88,XK,1669771940
459,hornepayne,49.2138,-84.7705,1.2600000000000477,97,100,6.58,CA,1669771940
460,tessalit,20.1986,1.0114,19.970000000000027,19,99,3.07,ML,1669771941
461,severnyy,50.677,36.5532,-6.979999999999961,86,0,6.0,RU,1669771941
462,don benito,38.9563,-5.8616,5.890000000000043,74,7,0.26,ES,1669771941
463,kirillov,59.863,38.3813,-10.70999999999998,95,77,1.24,RU,1669771942
464,korla,41.7597,86.1469,-10.239999999999952,30,76,1.15,CN,1669771942
465,bantacan,7.604,126.1298,26.52000000000004,90,100,1.93,PH,1669771943
466,ondjiva,-17.0667,15.7333,23.140000000000043,53,96,1.26,AO,1669771943
467,sibu,2.3,111.8167,27.170000000000016,83,40,2.68,MY,1669771944
468,amapa,1.0,-52.0,22.010000000000048,96,48,0.95,BR,1669771944
469,terrace,54.5163,-128.6035,-7.0499999999999545,38,75,3.09,CA,1669771944
470,zheleznodorozhnyy,55.7503,38.0042,-11.70999999999998,96,63,1.8,RU,1669771945
471,leh,34.1667,77.5833,-7.819999999999993,54,88,0.19,IN,1669771945
472,luau,-10.7073,22.2247,16.840000000000032,94,100,1.15,AO,1669771945
473,kihei,20.785,-156.4656,27.760000000000048,85,40,4.12,US,1669771946
474,beruwala,6.4788,79.9828,25.53000000000003,82,64,1.34,LK,1669771946
475,mocuba,-16.8392,36.9856,21.100000000000023,95,100,1.88,MZ,1669771946
476,portmore,17.9702,-76.8672,27.980000000000018,69,20,4.63,JM,1669771947
477,taree,-31.9,152.4667,22.260000000000048,43,74,4.28,AU,1669771947
478,tuyen quang,21.8233,105.2181,26.410000000000025,85,86,1.58,VN,1669771948
479,alyangula,-13.8483,136.4192,30.08000000000004,62,100,7.52,AU,1669771948
480,pangnirtung,66.1451,-65.7125,-26.889999999999986,98,100,1.23,CA,1669771949
481,hvide sande,56.0045,8.1294,5.210000000000036,83,90,5.63,DK,1669771949
482,abay,49.6311,72.8539,-17.789999999999964,71,100,3.69,KZ,1669771950
483,omboue,-1.5746,9.2618,23.54000000000002,91,100,2.34,GA,1669771950
484,malakal,9.5334,31.6605,25.55000000000001,50,85,2.85,SS,1669771816
485,atagay,55.1033,99.3875,-17.20999999999998,73,100,4.34,RU,1669771950
486,klaksvik,62.2266,-6.589,6.510000000000048,82,100,6.24,FO,1669771951
487,berdigestyakh,62.0989,126.6992,-31.569999999999965,96,100,3.25,RU,1669771951
488,aba,5.1066,7.3667,24.79000000000002,88,82,1.72,NG,1669771952
489,ambon,-3.6954,128.1814,29.08000000000004,74,20,2.06,ID,1669771952
490,kamiiso,41.8167,140.65,3.2100000000000364,75,75,5.66,JP,1669771952
491,bartica,6.4,-58.6167,24.180000000000007,99,100,0.71,GY,1669771953
492,arnes,60.1211,11.4663,1.830000000000041,99,100,0.85,NO,1669771953
493,ahipara,-35.1667,173.1667,19.82000000000005,77,32,6.36,NZ,1669771953
494,pacific grove,36.6177,-121.9166,12.53000000000003,75,0,4.92,US,1669771953
495,esfarayen,37.0765,57.5101,-3.1899999999999977,60,100,1.49,IR,1669771954
496,kinwat,19.6333,78.2,17.060000000000002,63,1,0.93,IN,1669771954
497,nazilli,37.9163,28.3223,11.850000000000023,82,100,1.44,TR,1669771955
498,karpathos,35.507,27.2132,14.980000000000018,88,100,1.54,GR,1669771955
499,haines junction,60.7522,-137.5108,-21.029999999999973,71,5,1.03,CA,1669771955
500,betulia,6.1128,-75.9838,16.32000000000005,97,97,0.93,CO,1669771956
501,san matias,-16.3667,-58.4,27.890000000000043,39,35,2.03,BO,1669771957
502,bundaberg,-24.85,152.35,21.230000000000018,96,100,1.34,AU,1669771957
503,flinders,-34.5833,150.8552,22.32000000000005,60,17,2.68,AU,1669771957
504,harer,9.3094,42.1258,12.270000000000039,36,0,2.24,ET,1669771957
505,trairi,-3.2778,-39.2689,25.170000000000016,83,100,1.29,BR,1669771958
506,nabire,-3.3667,135.4833,30.230000000000018,67,54,1.85,ID,1669771958
507,kedrovyy,56.1667,91.8167,-18.769999999999982,96,25,1.57,RU,1669771959
508,the pas,53.8251,-101.2541,-15.989999999999952,78,100,7.72,CA,1669771959
509,hammerfest,70.6634,23.6821,2.25,80,75,2.57,NO,1669771960
510,capitan bado,-23.2667,-55.5333,23.03000000000003,63,97,2.61,PY,1669771960
511,iralaya,15.0,-83.2333,26.129999999999995,80,16,4.42,HN,1669771961
512,talen,23.5667,76.7167,14.470000000000027,49,82,2.4,IN,1669771961
513,takoradi,4.8845,-1.7554,25.75,83,100,1.22,GH,1669771962
514,sept-iles,50.2001,-66.3821,-8.0,60,0,3.09,CA,1669771962
515,den helder,52.9599,4.7593,7.990000000000009,93,100,2.24,NL,1669771943
516,tazovskiy,67.4667,78.7,-21.69999999999999,100,74,2.07,RU,1669771963
517,kshenskiy,51.8408,37.7136,-6.359999999999957,79,68,4.34,RU,1669771963
518,launceston,-41.45,147.1667,20.80000000000001,58,40,6.17,AU,1669771964
519,lingyuan,41.24,119.4011,-11.979999999999961,28,0,4.49,CN,1669771753
520,maldonado,-34.6667,-54.9167,21.660000000000025,80,0,4.88,UY,1669771965
521,mwinilunga,-11.7358,24.4293,14.550000000000011,98,100,0.83,ZM,1669771965
522,am timan,11.0297,20.2827,22.30000000000001,24,43,3.54,TD,1669771965
523,revelstoke,50.9832,-118.2023,-8.989999999999952,86,100,1.03,CA,1669771966
524,kieta,-6.2167,155.6333,28.30000000000001,79,100,2.46,PG,1669771966
525,nara,34.6851,135.8049,16.939999999999998,44,100,3.38,JP,1669771968
526,beloha,-25.1667,45.05,22.610000000000014,79,100,2.61,MG,1669771968
527,victor harbor,-35.5667,138.6167,20.930000000000007,67,30,4.31,AU,1669771969
528,buchanan,5.8808,-10.0467,25.180000000000007,82,32,1.38,LR,1669771969
529,svetlaya,46.5389,138.3297,-11.21999999999997,52,1,4.68,RU,1669771969
530,bodmin,50.4715,-4.7243,8.020000000000039,81,100,4.63,GB,1669771969
531,bubaque,11.2833,-15.8333,27.02000000000004,63,75,3.71,GW,1669771970
532,north bend,43.4065,-124.2243,7.82000000000005,97,100,2.57,US,1669771971
533,lavrentiya,65.5833,-171.0,-0.7899999999999636,98,100,5.16,RU,1669771839
534,monrovia,6.3005,-10.7969,25.420000000000016,81,53,1.69,LR,1669771971
535,katsuura,35.1333,140.3,20.200000000000045,79,80,3.37,JP,1669771972
536,sobolevo,54.4299,31.8996,-6.729999999999961,90,100,3.7,RU,1669771972
537,akdepe,42.0551,59.3788,-1.9499999999999886,54,100,4.47,TM,1669771973
538,ovsyanka,55.9575,92.5519,-17.45999999999998,95,56,1.65,RU,1669771973
539,bukan,36.521,46.2089,7.03000000000003,73,100,1.95,IR,1669771973
540,salalah,17.0151,54.0924,23.05000000000001,78,20,2.06,OM,1669771974
541,bacolod,10.6667,122.95,29.650000000000034,70,99,6.5,PH,1669771974
542,tarakan,3.3,117.6333,26.980000000000018,79,100,0.92,ID,1669771975
543,port moresby,-9.4431,147.1797,33.68000000000001,46,40,5.14,PG,1669771975
544,bogandinskiy,56.8937,65.8938,-17.48999999999998,84,100,2.33,RU,1669771975
545,zunyi,27.6867,106.9072,4.2900000000000205,84,100,4.18,CN,1669771975
546,makakilo city,21.3469,-158.0858,28.180000000000007,59,0,5.66,US,1669771685
547,terekli-mekteb,44.1671,45.8698,2.160000000000025,66,100,6.96,RU,1669771976
548,hasaki,35.7333,140.8333,18.220000000000027,75,100,6.35,JP,1669771976
549,antalaha,-14.9003,50.2788,20.400000000000034,88,2,1.85,MG,1669771977
550,ulverstone,-41.15,146.1667,19.010000000000048,59,65,5.54,AU,1669771978
551,durango,24.8333,-104.8333,12.550000000000011,25,14,2.64,MX,1669771978
552,benguela,-12.5763,13.4055,24.210000000000036,84,97,1.29,AO,1669771978
