City_ID,City,Lat,Lng,Max Temp,Humidity,Cloudiness,Wind Speed,Country,Date
0,souillac,-20.5167,57.5167,26.410000000000025,64,30,5.06,MU,1669892728
1,busselton,-33.65,115.3333,18.140000000000043,63,1,6.49,AU,1669892729
2,castro,-24.7911,-50.0119,19.140000000000043,88,33,2.55,BR,1669892729
3,sehithwa,-20.4667,22.7167,34.80000000000001,12,0,4.46,BW,1669892730
4,airai,-8.9266,125.4092,16.53000000000003,95,100,1.08,TL,1669892730
5,loralai,30.3705,68.598,18.600000000000023,15,96,2.6,PK,1669892730
6,kapaa,22.0752,-159.319,24.180000000000007,90,75,3.09,US,1669892731
7,hithadhoo,-0.6,73.0833,27.620000000000005,62,73,2.75,MV,1669892731
8,kodiak,57.79,-152.4072,3.730000000000018,70,20,15.43,US,1669892732
9,talnakh,69.4865,88.3972,-18.899999999999977,99,100,0.24,RU,1669892732
10,cape town,-33.9258,18.4232,27.840000000000032,57,96,2.68,ZA,1669892667
11,ushuaia,-54.8,-68.3,7.7000000000000455,87,100,4.73,AR,1669892460
12,hermanus,-34.4187,19.2345,24.33000000000004,68,82,4.94,ZA,1669892601
13,guerrero negro,27.9769,-114.0611,13.870000000000005,84,4,4.17,MX,1669892733
14,nanortalik,60.1432,-45.2371,-3.329999999999984,75,12,15.5,GL,1669892734
15,qaanaaq,77.484,-69.3632,-32.12999999999997,90,77,3.21,GL,1669892734
16,east london,-33.0153,27.9116,26.03000000000003,73,47,4.05,ZA,1669892707
17,ilulissat,69.2167,-51.1,-6.989999999999952,73,75,11.32,GL,1669892734
18,mataura,-46.1927,168.8643,10.270000000000039,66,71,3.92,NZ,1669892735
19,hobart,-42.8794,147.3294,11.920000000000016,66,75,4.63,AU,1669892735
20,tilichiki,60.4667,166.1,-0.7899999999999636,97,100,4.52,RU,1669892735
21,albany,42.6001,-73.9662,0.25,56,3,1.34,US,1669892735
22,asau,46.4333,26.4,-1.4899999999999523,70,100,1.9,RO,1669892736
23,olden,61.8364,6.8064,1.410000000000025,84,21,2.57,NO,1669892736
24,olafsvik,64.8945,-23.7142,5.7900000000000205,81,97,14.68,IS,1669892736
25,punta arenas,-53.15,-70.9167,11.060000000000002,54,40,17.49,CL,1669892737
26,sinnamary,5.3833,-52.95,25.810000000000002,84,76,4.68,GF,1669892737
27,fortuna,40.5982,-124.1573,7.189999999999998,95,100,0.89,US,1669892737
28,nguruka,-5.1092,31.0419,23.110000000000014,71,99,2.49,TZ,1669892737
29,butaritari,3.0707,172.7902,26.950000000000045,80,46,5.84,KI,1669892738
30,muli,2.9167,73.5667,27.55000000000001,72,17,2.77,MV,1669892738
31,oussouye,12.485,-16.5469,30.07000000000005,21,84,4.94,SN,1669892739
32,faanui,-16.4833,-151.75,26.629999999999995,79,34,6.81,PF,1669892739
33,saskylakh,71.9167,114.0833,-35.77999999999997,99,49,2.13,RU,1669892740
34,brokopondo,4.75,-55.1667,24.29000000000002,90,89,2.88,SR,1669892740
35,umuarama,-23.7664,-53.325,22.980000000000018,75,4,4.17,BR,1669892740
36,sandpoint,48.2766,-116.5533,1.6899999999999977,91,100,0.0,US,1669892741
37,eyemouth,55.8713,-2.0901,4.57000000000005,88,100,4.23,GB,1669892742
38,sola,-13.8833,167.55,27.939999999999998,77,58,6.3,VU,1669892742
39,clyde river,70.4692,-68.5914,-30.879999999999967,78,1,1.2,CA,1669892743
40,mahanoro,-19.9,48.8,28.05000000000001,61,18,5.46,MG,1669892743
41,jamestown,42.097,-79.2353,-1.2299999999999613,96,100,4.92,US,1669892744
42,iqaluit,63.7506,-68.5145,-20.72999999999999,63,100,1.79,CA,1669892744
43,tiksi,71.6872,128.8694,-24.72999999999999,97,100,6.24,RU,1669892745
44,muzhi,65.3667,64.6667,-23.649999999999977,97,7,1.62,RU,1669892746
45,rikitea,-23.1203,-134.9692,22.75,76,35,5.55,PF,1669892746
46,bathsheba,13.2167,-59.5167,27.340000000000032,74,40,7.72,BB,1669892747
47,smithers,54.7804,-127.1743,-20.24999999999997,94,8,0.57,CA,1669892747
48,sisimiut,66.9395,-53.6735,-12.139999999999986,83,88,6.32,GL,1669892747
49,asfi,32.2994,-9.2372,17.629999999999995,72,64,7.27,MA,1669892726
50,bluff,-46.6,168.3333,10.450000000000045,76,79,8.94,NZ,1669892578
51,miri,4.4148,114.0089,24.360000000000014,94,100,3.47,MY,1669892748
52,troitsko-pechorsk,62.7084,56.1964,-22.599999999999966,100,20,0.75,RU,1669892749
53,atuona,-9.8,-139.0333,25.52000000000004,78,31,7.37,PF,1669892750
54,leningradskiy,69.3833,178.4167,-4.439999999999998,79,100,4.06,RU,1669892751
55,champerico,14.3,-91.9167,24.49000000000001,83,99,2.13,GT,1669892751
56,sharjah,25.3573,55.4033,29.160000000000025,37,0,4.12,AE,1669892751
57,sioux lookout,50.1001,-91.917,-16.44999999999999,98,92,1.36,CA,1669892751
58,nanakuli,21.3906,-158.1547,23.950000000000045,72,0,1.54,US,1669892752
59,vestmannaeyjar,63.4427,-20.2734,5.550000000000011,81,75,10.29,IS,1669892730
60,longyearbyen,78.2186,15.6401,2.910000000000025,81,75,1.03,SJ,1669892752
61,torbay,47.6666,-52.7314,1.4300000000000068,88,100,8.75,CA,1669892636
62,karratha,-20.7377,116.8463,29.010000000000048,49,2,7.57,AU,1669892753
63,thompson,55.7435,-97.8558,-25.909999999999968,92,100,1.14,CA,1669892754
64,wahiawa,21.5028,-158.0236,22.150000000000034,79,75,1.54,US,1669892754
65,hilo,19.7297,-155.09,27.379999999999995,93,100,1.54,US,1669892755
66,yellowknife,62.456,-114.3525,-21.839999999999975,97,100,0.98,CA,1669892595
67,kavaratti,10.5669,72.642,27.80000000000001,70,45,1.36,IN,1669892755
68,vaini,-21.2,-175.2,26.30000000000001,81,69,3.98,TO,1669892756
69,bluefields,12.0137,-83.7635,23.450000000000045,92,91,3.11,NI,1669892756
70,sabang,5.8933,95.3214,27.850000000000023,70,78,2.02,ID,1669892756
71,lebu,-37.6167,-73.65,11.180000000000007,66,0,6.42,CL,1669892757
72,cabo san lucas,22.8909,-109.9124,22.510000000000048,80,13,3.09,MX,1669892757
73,kappeln,54.6612,9.9313,5.090000000000032,83,100,3.4,DE,1669892758
74,tuktoyaktuk,69.4541,-133.0374,-22.359999999999985,100,99,1.49,CA,1669892758
75,bambanglipuro,-7.95,110.2833,25.810000000000002,76,98,2.51,ID,1669892759
76,manono,-7.3,27.4167,22.420000000000016,91,99,1.32,CD,1669892759
77,arraial do cabo,-22.9661,-42.0278,23.920000000000016,94,40,7.72,BR,1669892759
78,mildura,-34.2,142.15,20.600000000000023,47,2,6.1,AU,1669892760
79,bengkulu,-3.8004,102.2655,25.890000000000043,82,100,1.18,ID,1669892760
80,new norfolk,-42.7826,147.0587,11.720000000000027,63,24,0.45,AU,1669892761
81,lavrentiya,65.5833,-171.0,-6.1299999999999955,94,98,1.03,RU,1669892470
82,saint-philippe,-21.3585,55.7679,27.77000000000004,77,49,3.62,RE,1669892762
83,flin flon,54.7682,-101.865,-21.899999999999977,96,100,2.78,CA,1669892762
84,amos,48.5669,-78.1162,-4.919999999999959,89,100,7.43,CA,1669892532
85,navalmoral de la mata,39.8916,-5.5406,15.53000000000003,54,4,3.07,ES,1669892459
86,saint george,37.1041,-113.5841,-0.6699999999999591,64,0,0.0,US,1669892689
87,olinda,-8.0089,-34.8553,26.850000000000023,74,75,4.12,BR,1669892628
88,barrow,71.2906,-156.7887,-6.989999999999952,86,100,2.57,US,1669892763
89,saint austell,50.3383,-4.7658,11.29000000000002,81,0,3.6,GB,1669892763
90,dalnerechensk,45.9339,133.7225,-19.49999999999997,88,37,3.33,RU,1669892764
91,coruripe,-10.1256,-36.1756,26.28000000000003,75,99,6.1,BR,1669892764
92,khandyga,62.6667,135.6,-34.48999999999998,98,100,0.82,RU,1669892765
93,provideniya,64.3833,-173.3,-3.9799999999999613,89,86,2.32,RU,1669892765
94,shobara,34.85,133.0167,1.8799999999999955,95,66,1.41,JP,1669892766
95,georgetown,5.4112,100.3354,26.960000000000036,85,40,4.63,MY,1669892706
96,avarua,-21.2078,-159.775,25.03000000000003,88,40,5.66,CK,1669892766
97,chokurdakh,70.6333,147.9167,-18.639999999999986,98,100,1.89,RU,1669892766
98,saint anthony,45.0205,-93.218,-12.379999999999995,85,0,2.06,US,1669892767
99,cayenne,4.9333,-52.3333,25.02000000000004,94,75,0.0,GF,1669892767
100,buta,2.7858,24.73,29.920000000000016,56,94,1.41,CD,1669892767
101,khatanga,71.9667,102.5,-17.809999999999974,97,100,5.49,RU,1669892768
102,port alfred,-33.5906,26.891,22.879999999999995,77,45,3.13,ZA,1669892768
103,vinh,18.6667,105.6667,19.54000000000002,93,100,5.74,VN,1669892768
104,perth,-31.9333,115.8333,20.58000000000004,71,75,6.17,AU,1669892470
105,kahului,20.8947,-156.47,24.360000000000014,90,0,2.06,US,1669892769
106,isangel,-19.55,169.2667,26.610000000000014,85,92,2.28,VU,1669892770
107,bredasdorp,-34.5322,20.0403,28.480000000000018,37,58,7.22,ZA,1669892476
108,dunmore town,25.5,-76.65,25.58000000000004,71,73,4.76,BS,1669892770
109,coquimbo,-29.9533,-71.3436,15.28000000000003,84,74,1.62,CL,1669892529
110,huaraz,-9.5333,-77.5333,8.200000000000045,91,99,0.78,PE,1669892524
111,tasiilaq,65.6145,-37.6368,5.090000000000032,88,100,1.7,GL,1669892771
112,ukiah,39.1502,-123.2078,10.520000000000039,93,100,4.63,US,1669892772
113,geraldton,-28.7667,114.6,20.230000000000018,68,40,5.66,AU,1669892772
114,dikson,73.5069,80.5464,-6.449999999999989,94,100,8.26,RU,1669892618
115,hasaki,35.7333,140.8333,8.220000000000027,81,100,7.12,JP,1669892772
116,sitka,57.0531,-135.33,-2.0600000000000023,69,100,3.6,US,1669892773
117,coahuayana,18.7333,-103.6833,22.83000000000004,92,73,1.18,MX,1669892773
118,arlit,18.7369,7.3853,26.939999999999998,14,95,1.76,NE,1669892773
119,salym,60.0625,71.4789,-23.609999999999985,94,8,0.42,RU,1669892632
120,bolgatanga,10.7856,-0.8514,35.44,14,49,1.19,GH,1669892774
121,praia da vitoria,38.7333,-27.0667,15.980000000000018,81,5,3.16,PT,1669892774
122,kavieng,-2.5744,150.7967,28.129999999999995,72,93,2.17,PG,1669892775
123,carnarvon,-24.8667,113.6333,21.660000000000025,73,3,8.45,AU,1669892775
124,san cristobal,7.7669,-72.225,17.100000000000023,93,43,1.88,VE,1669892775
125,deputatskiy,69.3,139.9,-26.00999999999999,97,100,2.01,RU,1669892775
126,asosa,10.0667,34.5333,29.410000000000025,21,84,2.52,ET,1669892776
127,chishtian mandi,29.8,72.8667,26.629999999999995,13,27,1.93,PK,1669892776
128,karasjok,69.4719,25.5112,-8.849999999999966,99,99,0.4,NO,1669892777
129,tautira,-17.7333,-149.15,25.730000000000018,83,78,6.88,PF,1669892714
130,hun,29.1268,15.9477,18.910000000000025,28,0,1.41,LY,1669892778
131,indre arna,60.4247,5.4764,5.53000000000003,79,98,1.34,NO,1669892779
132,tual,-5.6667,132.75,25.80000000000001,85,100,6.34,ID,1669892779
133,esperance,-33.8667,121.9,23.350000000000023,57,1,2.6,AU,1669892779
134,bulgan,48.8125,103.5347,-21.419999999999987,84,20,2.23,MN,1669892780
135,byron bay,-28.65,153.6167,16.640000000000043,91,100,8.53,AU,1669892526
136,chumikan,54.7183,135.315,-23.049999999999983,76,13,10.73,RU,1669892780
137,sorland,67.667,12.6934,3.920000000000016,72,36,4.01,NO,1669892781
138,lagoa,39.05,-27.9833,17.150000000000034,79,4,5.52,PT,1669892781
139,goderich,43.7501,-81.7165,0.5100000000000477,71,100,13.51,CA,1669892781
140,pundaguitan,6.3711,126.1689,27.650000000000034,80,100,7.16,PH,1669892782
141,kyshtovka,56.555,76.6271,-22.099999999999966,97,14,2.62,RU,1669892783
142,nemuro,43.3236,145.575,-1.2199999999999704,49,1,8.6,JP,1669892783
143,pacific grove,36.6177,-121.9166,10.050000000000011,76,75,2.68,US,1669892783
144,mar del plata,-38.0023,-57.5575,17.83000000000004,92,100,1.79,AR,1669892632
145,twentynine palms,34.1356,-116.0542,9.920000000000016,51,3,1.36,US,1669892784
146,khovu-aksy,51.1333,93.6,-27.43999999999997,94,7,1.28,RU,1669892784
147,suntar,62.1444,117.6319,-26.649999999999977,93,100,3.37,RU,1669892784
148,aklavik,68.2191,-135.0107,-16.089999999999975,97,100,0.54,CA,1669892785
149,chapais,49.7834,-74.8492,-5.1200000000000045,93,100,5.15,CA,1669892785
150,imbituba,-28.24,-48.6703,23.810000000000002,96,89,5.65,BR,1669892786
151,varkkallai,8.7341,76.7067,29.879999999999995,72,37,2.61,IN,1669892787
152,serafimovich,49.5786,42.736,-2.9899999999999523,41,71,5.64,RU,1669892788
153,xining,36.6167,101.7667,-4.069999999999993,35,88,1.13,CN,1669892788
154,lodja,-3.4833,23.4333,23.660000000000025,94,99,1.77,CD,1669892789
155,challakere,14.3167,76.65,29.439999999999998,41,43,2.83,IN,1669892789
156,poum,-20.2333,164.0167,27.760000000000048,84,99,5.13,NC,1669892790
157,digboi,27.3833,95.6333,19.53000000000003,61,2,0.54,IN,1669892790
158,dongning,44.0622,131.1207,-13.45999999999998,64,74,4.77,CN,1669892791
159,husavik,66.0449,-17.3389,3.2700000000000387,75,0,8.02,IS,1669892791
160,mahebourg,-20.4081,57.7,26.810000000000002,67,11,5.02,MU,1669892492
161,narsaq,60.9167,-46.05,-3.8799999999999955,82,55,1.09,GL,1669892792
162,mimongo,-1.6195,11.6068,29.930000000000007,52,100,1.96,GA,1669892792
163,jaciara,-15.9653,-54.9683,23.370000000000005,79,98,0.84,BR,1669892567
164,labuhan,-6.8844,112.2051,27.960000000000036,72,100,0.33,ID,1669892793
165,shimoda,34.6667,138.95,9.5,78,96,1.45,JP,1669892793
166,flinders,-34.5833,150.8552,17.25,80,97,1.62,AU,1669892793
167,oum hadjer,13.2954,19.6966,34.110000000000014,12,100,5.0,TD,1669892794
168,tecoanapa,16.5167,-98.75,24.230000000000018,87,22,1.91,MX,1669892794
169,saldanha,-33.0117,17.9442,20.939999999999998,69,68,5.45,ZA,1669892795
170,muisne,0.6,-80.0333,23.260000000000048,86,100,3.85,EC,1669892795
171,ketchikan,55.3422,-131.6461,-9.739999999999952,79,0,1.54,US,1669892795
172,vila franca do campo,37.7167,-25.4333,16.230000000000018,72,4,2.57,PT,1669892795
173,brewster,41.3973,-73.6171,2.180000000000007,62,40,4.63,US,1669892796
174,nargana,9.4428,-78.5906,25.75,81,10,5.37,PA,1669892796
175,port elizabeth,-33.918,25.5701,25.610000000000014,75,54,7.15,ZA,1669892582
176,bac giang,21.2667,106.2,15.04000000000002,76,100,5.31,VN,1669892797
177,ranong,9.9658,98.6348,27.25,78,89,2.49,TH,1669892797
178,hobyo,5.3505,48.5268,28.55000000000001,68,43,7.41,SO,1669892798
179,svobodnyy,51.4,128.1333,-26.149999999999977,92,19,2.9,RU,1669892798
180,kaitangata,-46.2817,169.8464,10.0,64,96,5.0,NZ,1669892798
181,klaksvik,62.2266,-6.589,10.510000000000048,99,100,7.53,FO,1669892799
182,pisco,-13.7,-76.2167,17.230000000000018,88,0,2.06,PE,1669892711
183,gobabis,-22.45,18.9667,32.54000000000002,17,3,4.42,NA,1669892799
184,mount gambier,-37.8333,140.7667,11.700000000000045,87,4,3.7,AU,1669892799
185,san carlos de bariloche,-41.1456,-71.3082,12.470000000000027,45,0,2.06,AR,1669892695
186,lompoc,34.6391,-120.4579,10.990000000000009,94,75,1.54,US,1669892800
187,bolshaya martynovka,47.271,41.6679,2.57000000000005,32,41,8.65,RU,1669892800
188,markivka,49.5229,39.5705,0.060000000000002274,35,99,6.67,UA,1669892801
189,lorengau,-2.0226,147.2712,27.400000000000034,78,76,2.92,PG,1669892802
190,dhidhdhoo,6.8833,73.1,27.510000000000048,70,82,1.29,MV,1669892802
191,vanavara,60.34,102.2797,-27.339999999999975,95,86,2.14,RU,1669892802
192,half moon bay,37.4636,-122.4286,11.879999999999995,81,100,8.75,US,1669892802
193,mamou,10.5,-12.0,30.5,39,82,1.09,GN,1669892803
194,cherskiy,68.75,161.3,-5.8799999999999955,89,99,5.47,RU,1669892803
195,aasiaat,68.7098,-52.8699,-9.95999999999998,71,100,6.75,GL,1669892803
196,kachug,53.9606,105.8817,-18.98999999999998,84,100,4.99,RU,1669892804
197,saurimo,-9.6608,20.3916,28.939999999999998,48,81,1.32,AO,1669892804
198,ikryanoye,46.0932,47.7308,2.990000000000009,40,2,6.42,RU,1669892804
199,makakilo city,21.3469,-158.0858,23.160000000000025,83,0,2.57,US,1669892805
200,sechura,-5.5569,-80.8222,18.200000000000045,88,69,3.02,PE,1669892805
201,andenes,69.3143,16.1194,3.8500000000000227,93,75,2.06,NO,1669892805
202,codrington,-38.2667,141.9667,10.870000000000005,85,14,4.17,AU,1669892806
203,oranjemund,-28.55,16.4333,20.610000000000014,70,3,7.55,NA,1669892677
204,neiafu,-18.65,-173.9833,26.670000000000016,77,46,3.01,TO,1669892807
205,qui nhon,13.7667,109.2333,25.05000000000001,91,99,5.21,VN,1669892807
206,luderitz,-26.6481,15.1594,22.879999999999995,60,4,9.76,NA,1669892570
207,dolinsk,47.35,142.8,-10.199999999999989,86,76,4.7,RU,1669892808
208,shenjiamen,29.9576,122.298,9.080000000000041,89,100,9.52,CN,1669892634
209,fukue,32.6881,128.8419,9.370000000000005,60,99,8.88,JP,1669892809
210,ambon,-3.6954,128.1814,26.08000000000004,89,40,3.09,ID,1669892811
211,pevek,69.7008,170.3133,-5.2999999999999545,78,75,9.59,RU,1669892811
212,iranshahr,27.2025,60.6848,27.129999999999995,12,87,2.76,IR,1669892781
213,salinopolis,-0.6136,-47.3561,27.410000000000025,78,61,4.26,BR,1669892812
214,atuntaqui,0.3333,-78.2167,10.090000000000032,89,69,0.37,EC,1669892812
215,varhaug,58.6147,5.6457,6.3799999999999955,68,99,5.67,NO,1669892812
216,gizo,-8.103,156.8419,27.29000000000002,80,99,4.76,SB,1669892813
217,bethel,41.3712,-73.414,2.5100000000000477,59,40,4.63,US,1669892813
218,port augusta,-32.5,137.7667,20.200000000000045,59,50,5.59,AU,1669892813
219,segovia,41.1667,-4.0,6.910000000000025,51,0,2.28,ES,1669892195
220,meulaboh,4.1363,96.1285,25.420000000000016,85,100,1.22,ID,1669892814
221,agua dulce,18.1333,-94.1333,24.220000000000027,84,49,3.58,MX,1669892815
222,baillif,16.0202,-61.7463,21.720000000000027,77,8,3.81,GP,1669892815
223,moose factory,51.2585,-80.6094,-3.009999999999991,80,100,9.77,CA,1669892815
224,alyangula,-13.8483,136.4192,28.890000000000043,70,100,4.35,AU,1669892816
225,orlik,52.5178,99.825,-20.97999999999999,89,99,1.79,RU,1669892816
226,bambous virieux,-20.3428,57.7575,26.79000000000002,66,4,5.36,MU,1669892816
227,melfi,40.9965,15.6514,7.220000000000027,84,100,1.92,IT,1669892817
228,svetlogorsk,52.6333,29.7333,-2.7999999999999545,89,40,3.16,BY,1669892817
229,makkaveyevo,51.7533,113.9454,-14.319999999999993,68,100,5.95,RU,1669892817
230,price,39.5994,-110.8107,-8.409999999999968,53,0,2.57,US,1669892682
231,kidal,18.4411,1.4078,28.680000000000007,14,90,3.09,ML,1669892818
232,tondano,1.3038,124.9112,23.05000000000001,95,100,1.16,ID,1669892818
233,chara,56.9064,118.2631,-28.75999999999999,77,100,1.13,RU,1669892819
234,kashi,39.4547,75.9797,-1.7199999999999704,17,96,0.86,CN,1669892819
235,fomboni,-12.28,43.7425,26.82000000000005,65,0,1.51,KM,1669892819
236,emerald,-23.5333,148.1667,19.629999999999995,73,42,6.82,AU,1669892764
237,tarrafal,15.2833,-23.7667,24.03000000000003,63,95,7.32,CV,1669892820
238,muros,42.7762,-9.0603,12.830000000000041,75,1,3.49,ES,1669892820
239,charyshskoye,51.3978,83.5598,-19.369999999999976,94,43,1.43,RU,1669892821
240,nome,64.5011,-165.4064,-5.9599999999999795,86,0,2.57,US,1669892821
241,ust-tsilma,65.441,52.1498,-16.870000000000005,99,99,1.83,RU,1669892821
242,elbistan,38.2059,37.1983,11.629999999999995,68,93,0.14,TR,1669892822
243,gazli,40.1333,63.45,4.6299999999999955,31,100,5.19,UZ,1669892822
244,pizhma,57.8642,47.1171,-9.339999999999975,94,50,0.89,RU,1669892822
245,tocopilla,-22.092,-70.1979,18.650000000000034,70,10,2.81,CL,1669892823
246,fort walton beach,30.4058,-86.6188,7.800000000000011,63,0,4.92,US,1669892823
247,caravelas,-17.7125,-39.2481,27.170000000000016,75,100,0.26,BR,1669892824
248,scarborough,54.2797,-0.4044,5.920000000000016,89,41,1.79,GB,1669892728
249,cap malheureux,-19.9842,57.6142,26.930000000000007,63,4,3.13,MU,1669892824
250,vao,-22.6667,167.4833,25.879999999999995,86,88,6.0,NC,1669892825
251,banes,20.9625,-75.7186,25.600000000000023,73,76,4.09,CU,1669892825
252,knysna,-34.0363,23.0471,24.670000000000016,57,30,4.41,ZA,1669892786
253,coihaique,-45.5752,-72.0662,5.430000000000007,89,63,3.74,CL,1669892526
254,chuy,-33.6971,-53.4616,24.04000000000002,77,80,4.62,UY,1669892826
255,ca mau,9.1769,105.15,25.970000000000027,78,100,3.7,VN,1669892827
256,santa marinella,42.0345,11.8536,14.28000000000003,60,17,0.89,IT,1669892827
257,hamilton,39.1834,-84.5333,-3.4799999999999613,74,0,3.09,US,1669892642
258,roebourne,-20.7833,117.1333,30.78000000000003,39,3,7.38,AU,1669892827
259,irmo,34.086,-81.1832,1.5200000000000387,80,0,0.0,US,1669892828
260,novouzensk,50.4592,48.1431,-2.1299999999999955,54,0,2.92,RU,1669892828
261,constitucion,-35.3333,-72.4167,13.980000000000018,53,0,1.9,CL,1669892829
262,port-cartier,50.0334,-66.8654,3.1200000000000045,99,100,3.35,CA,1669892829
263,merauke,-8.4667,140.3333,27.010000000000048,83,100,5.01,ID,1669892829
264,hakui,36.8833,136.7833,7.050000000000011,93,92,3.24,JP,1669892830
265,pangkalanbuun,-2.6833,111.6167,24.370000000000005,94,93,0.6,ID,1669892830
266,okhotsk,59.3833,143.3,-19.24999999999997,99,100,3.86,RU,1669892830
267,viedma,-40.8135,-62.9967,15.850000000000023,56,0,3.22,AR,1669892831
268,chimbote,-9.0853,-78.5783,18.350000000000023,87,71,2.04,PE,1669892831
269,woodward,36.4337,-99.3904,0.5100000000000477,63,0,7.72,US,1669892543
270,torres,-29.3353,-49.7269,23.24000000000001,97,100,3.4,BR,1669892832
271,sampit,-2.5333,112.95,24.55000000000001,92,84,1.17,ID,1669892832
272,zheleznodorozhnyy,55.7503,38.0042,-8.70999999999998,84,100,1.23,RU,1669892832
273,sibu,2.3,111.8167,23.610000000000014,97,100,1.01,MY,1669892832
274,polunochnoye,60.8697,60.4153,-20.769999999999982,100,67,1.1,RU,1669892833
275,male,4.1748,73.5089,27.879999999999995,71,9,4.57,MV,1669892833
276,shitanjing,39.2342,106.3439,-9.859999999999957,15,50,2.56,CN,1669892834
277,prykolotne,50.1604,37.3474,-0.4399999999999977,37,100,6.7,UA,1669892542
278,mattru,7.6244,-11.8332,30.83000000000004,62,88,0.13,SL,1669892834
279,palotina,-24.2839,-53.84,23.650000000000034,71,11,3.28,BR,1669892835
280,fort pierce,27.4467,-80.3256,24.010000000000048,86,0,8.05,US,1669892835
281,henties bay,-22.116,14.2845,19.02000000000004,74,14,5.17,NA,1669892835
282,linqiong,30.4159,103.4609,6.910000000000025,61,86,0.41,CN,1669892836
283,aksarka,66.5606,67.7975,-22.18999999999997,97,21,3.59,RU,1669892836
284,biloela,-24.4167,150.5,14.78000000000003,91,39,3.29,AU,1669892836
285,buluang,13.3068,123.3425,25.420000000000016,88,100,2.31,PH,1669892837
286,agadez,19.75,10.25,22.77000000000004,22,29,2.97,NE,1669892837
287,aitape,-3.1374,142.3475,25.99000000000001,87,100,3.57,PG,1669892837
288,portland,45.5234,-122.6762,4.330000000000041,91,40,5.66,US,1669892838
289,vardo,70.3705,31.1107,0.9900000000000091,75,75,4.12,NO,1669892838
290,san pedro buenavista,16.0833,-93.1167,18.230000000000018,99,53,1.09,MX,1669892838
291,pangnirtung,66.1451,-65.7125,-25.559999999999974,67,35,3.11,CA,1669892839
292,grindavik,63.8424,-22.4338,6.260000000000048,81,75,11.32,IS,1669892839
293,victoria,22.2855,114.1577,16.810000000000002,77,42,7.15,HK,1669892840
294,ahipara,-35.1667,173.1667,14.910000000000025,74,99,5.28,NZ,1669892840
295,san policarpo,12.1791,125.5072,27.410000000000025,85,100,6.74,PH,1669892841
296,beyneu,45.3167,55.2,-0.15999999999996817,18,0,3.92,KZ,1669892841
297,calderitas,18.55,-88.25,24.510000000000048,86,3,2.7,MX,1669892841
298,ishigaki,24.3448,124.1572,23.07000000000005,80,100,13.43,JP,1669892841
299,salgueiro,-8.0742,-39.1192,26.420000000000016,61,95,6.18,BR,1669892842
300,chenghai,23.4632,116.768,16.100000000000023,68,97,3.37,CN,1669892842
301,kompolt,47.7333,20.25,6.470000000000027,52,83,1.5,HU,1669892843
302,salta,-24.7859,-65.4117,17.54000000000002,85,93,1.34,AR,1669892741
303,rio bravo,25.9833,-98.1,13.930000000000007,61,100,4.4,MX,1669892844
304,namatanai,-3.6667,152.4333,26.960000000000036,79,88,2.06,PG,1669892845
305,empalme,27.9667,-110.8167,16.27000000000004,60,2,1.43,MX,1669892657
306,ixtapa,20.7,-105.2,20.680000000000007,85,27,0.95,MX,1669892846
307,benjamin constant,-4.3831,-70.0311,23.07000000000005,94,0,0.0,BR,1669892846
308,termiz,37.2242,67.2783,12.050000000000011,58,40,4.12,UZ,1669892846
309,hualmay,-11.0964,-77.6139,18.760000000000048,87,27,3.29,PE,1669892847
310,monte patria,-30.6919,-70.9467,17.629999999999995,68,15,1.12,CL,1669892847
311,xinzhi,36.4989,111.7047,-2.2199999999999704,12,100,0.62,CN,1669892847
312,srednekolymsk,67.45,153.6833,-24.22999999999999,97,100,7.17,RU,1669892848
313,kayseri,38.737,35.4968,16.010000000000048,51,40,1.03,TR,1669892796
314,micheweni,-4.9667,39.8333,28.060000000000002,69,99,3.06,TZ,1669892848
315,pitkyaranta,61.5734,31.4792,-2.2399999999999523,91,100,1.72,RU,1669892849
316,qurbus,36.8167,10.5687,16.02000000000004,59,91,3.8,TN,1669892849
317,port lincoln,-34.7333,135.8667,16.629999999999995,73,0,5.45,AU,1669892850
318,mnogovershinnyy,53.9353,139.9242,-19.349999999999966,92,100,7.31,RU,1669892850
319,ossora,59.2353,163.0719,-3.75,93,100,0.42,RU,1669892851
320,sakakah,29.9697,40.2064,19.160000000000025,39,0,1.46,SA,1669892851
321,nikolskoye,59.7035,30.7861,-4.0,76,100,1.25,RU,1669892851
322,puerto ayora,-0.7393,-90.3518,20.310000000000002,92,82,2.68,EC,1669892852
323,mosquera,4.7059,-74.2302,11.050000000000011,93,75,2.06,CO,1669892661
324,kholmy,51.871,32.6006,0.010000000000047748,54,100,5.5,UA,1669892852
325,mitu,1.1983,-70.1733,21.49000000000001,94,91,1.71,CO,1669892853
326,padang,-0.9492,100.3543,27.03000000000003,89,98,1.88,ID,1669892745
327,saint-pierre,-21.3393,55.4781,27.82000000000005,65,0,6.69,RE,1669892730
328,beringovskiy,63.05,179.3167,0.57000000000005,98,100,7.7,RU,1669892853
329,newcastle,-32.9272,151.7765,18.730000000000018,75,40,5.66,AU,1669892723
330,tessalit,20.1986,1.0114,26.960000000000036,14,98,2.45,ML,1669892854
331,ribeira grande,38.5167,-28.7,19.32000000000005,63,40,3.09,PT,1669892854
332,rawson,-43.3002,-65.1023,17.670000000000016,50,0,7.84,AR,1669892855
333,te anau,-45.4167,167.7167,6.1299999999999955,82,41,1.11,NZ,1669892855
334,shubarkuduk,49.1447,56.4872,-4.109999999999957,26,7,3.3,KZ,1669892855
335,calceta,-0.85,-80.1667,21.960000000000036,85,90,0.93,EC,1669892856
336,kyzyl-suu,42.3414,78.0056,-1.1899999999999977,69,41,4.45,KG,1669892857
337,mega,4.05,38.3,25.470000000000027,25,64,8.29,ET,1669892857
338,sulangan,11.1373,123.7228,28.470000000000027,78,100,7.81,PH,1669892857
339,kabo,7.6994,18.629,36.08000000000004,15,39,1.77,CF,1669892857
340,dwarka,22.2394,68.9678,27.450000000000045,36,0,3.84,IN,1669892604
341,kathu,7.9178,98.3332,30.390000000000043,99,100,1.46,TH,1669892858
342,kholmogory,64.2229,41.656,-7.0499999999999545,87,100,1.89,RU,1669892858
343,bubaque,11.2833,-15.8333,26.810000000000002,48,99,3.97,GW,1669892859
344,kisanga,-7.4362,37.7034,34.370000000000005,36,75,5.1,TZ,1669892646
345,yarada,17.65,83.2667,29.180000000000007,70,20,4.63,IN,1669892859
346,kawalu,-7.3817,108.2082,23.620000000000005,91,100,1.64,ID,1669892860
347,tomatlan,19.9333,-105.25,21.0,88,33,1.26,MX,1669892860
348,kuytun,54.3419,101.5036,-18.419999999999987,88,100,6.53,RU,1669892860
349,gravenhurst,44.9168,-79.3663,-0.8999999999999773,69,100,8.23,CA,1669892861
350,kaeo,-35.1,173.7833,13.510000000000048,91,84,2.91,NZ,1669892861
351,jiutai,44.1525,125.8328,-14.370000000000005,56,17,4.49,CN,1669892862
352,necochea,-38.5473,-58.7368,14.830000000000041,92,100,5.61,AR,1669892862
353,colares,38.7992,-9.4469,14.430000000000007,79,20,5.81,PT,1669892862
354,upernavik,72.7868,-56.1549,-14.949999999999989,91,100,9.47,GL,1669892863
355,broken hill,-31.95,141.4333,22.560000000000002,23,0,5.83,AU,1669892863
356,mahanje,-9.9333,35.3333,18.52000000000004,93,100,0.56,TZ,1669892863
357,nipawin,53.3668,-104.0009,-21.97999999999999,77,100,7.2,CA,1669892864
358,luganville,-15.5333,167.1667,26.950000000000045,83,100,3.46,VU,1669892864
359,quatre cocos,-20.2078,57.7625,26.720000000000027,65,5,5.15,MU,1669892864
360,savannah bight,16.45,-85.85,27.74000000000001,72,6,6.31,HN,1669892865
361,manokwari,-0.8667,134.0833,26.210000000000036,82,96,1.4,ID,1669892865
362,nouadhibou,20.931,-17.0347,18.870000000000005,58,4,5.99,MR,1669892865
363,kudahuvadhoo,2.6708,72.8944,27.110000000000014,70,13,2.46,MV,1669892866
364,vila velha,-20.3297,-40.2925,23.860000000000014,98,72,4.5,BR,1669892655
365,laguna,38.421,-121.4238,10.650000000000034,73,100,5.14,US,1669892867
366,bairiki,1.3292,172.9752,28.0,83,20,2.57,KI,1669892867
367,casablanca,33.5928,-7.6192,13.120000000000005,79,94,7.89,MA,1669892762
368,goure,13.9835,10.2704,28.83000000000004,13,8,4.35,NE,1669892868
369,evensk,61.95,159.2333,-8.92999999999995,85,96,1.14,RU,1669892868
370,dorokhovo,55.5506,36.3744,-6.919999999999959,76,100,1.9,RU,1669892868
371,ondangwa,-17.9167,15.95,34.410000000000025,19,0,3.3,NA,1669892869
372,mapiri,-15.25,-68.1667,19.420000000000016,98,15,0.63,BO,1669892871
373,wum,6.3833,10.0667,28.730000000000018,28,100,1.65,CM,1669892872
374,quthing,-30.4,27.7003,28.30000000000001,26,94,2.46,LS,1669892872
375,naryan-mar,67.6713,53.087,-14.099999999999966,96,75,5.07,RU,1669892872
376,ginda,30.6945,78.4932,14.810000000000002,38,11,1.54,IN,1669892873
377,cururupu,-1.8283,-44.8683,27.670000000000016,73,27,2.62,BR,1669892873
378,cidreira,-30.1811,-50.2056,21.970000000000027,95,100,6.47,BR,1669892873
379,namibe,-15.1961,12.1522,25.05000000000001,68,59,4.85,AO,1669892874
380,glenwood springs,39.5505,-107.3248,2.57000000000005,68,0,10.8,US,1669892874
381,abeche,13.8292,20.8324,34.51000000000005,15,100,3.62,TD,1669892874
382,udachnyy,66.4167,112.4,-25.359999999999985,91,100,9.16,RU,1669892875
383,atoka,34.4001,-96.0169,1.7900000000000205,62,98,2.53,US,1669892875
384,canberra,-35.2835,149.1281,15.710000000000036,83,100,3.6,AU,1669892773
385,jeremie,18.65,-74.1167,26.140000000000043,78,28,5.52,HT,1669892876
386,sao filipe,14.8961,-24.4956,24.180000000000007,62,66,3.01,CV,1669892876
387,marsa matruh,31.3525,27.2453,20.52000000000004,43,0,2.73,EG,1669892876
388,miasskoye,55.2784,61.8905,-16.50999999999999,92,100,2.46,RU,1669892877
389,tarakan,3.3,117.6333,27.670000000000016,74,100,3.67,ID,1669892877
390,ancud,-41.8697,-73.8203,7.640000000000043,69,14,1.25,CL,1669892878
391,taltal,-25.4,-70.4833,17.340000000000032,80,12,0.98,CL,1669892878
392,nioro,13.35,-15.75,30.5,14,91,4.58,GM,1669892878
393,denpasar,-8.65,115.2167,27.810000000000002,74,20,2.57,ID,1669892879
394,oranjestad,12.524,-70.027,23.970000000000027,88,20,5.14,AW,1669892879
395,rio gallegos,-51.6226,-69.2181,11.03000000000003,37,75,5.14,AR,1669892879
396,yerbogachen,61.2767,108.0108,-25.649999999999977,95,100,3.74,RU,1669892880
397,manicore,-5.8092,-61.3003,23.82000000000005,95,94,1.0,BR,1669892880
398,piopio,-38.4667,175.0167,13.939999999999998,69,54,3.02,NZ,1669892880
399,kangaatsiaq,68.3065,-53.4641,-7.189999999999998,69,100,13.3,GL,1669892881
400,paamiut,61.994,-49.6678,-7.0,72,32,11.04,GL,1669892699
401,wukari,7.85,9.7833,34.06,15,53,3.51,NG,1669892881
402,pedana,16.2667,81.1667,30.100000000000023,68,18,3.47,IN,1669892882
403,meadow lake,34.8014,-106.5436,5.6200000000000045,61,0,1.34,US,1669892882
404,yulara,-25.2406,130.9889,28.920000000000016,13,0,3.95,AU,1669892883
405,avera,33.194,-82.5271,1.7300000000000182,66,0,2.42,US,1669892883
406,kamenka,51.3223,42.7678,-1.589999999999975,53,83,3.19,RU,1669892883
407,abu samrah,35.3029,37.1841,15.490000000000009,69,62,1.61,SY,1669892884
408,yamada,39.4667,141.95,2.830000000000041,95,100,1.46,JP,1669892884
409,guadalajara,20.6667,-103.3333,17.210000000000036,72,20,2.06,MX,1669892649
410,petropavlovsk-kamchatskiy,53.0452,158.6483,-8.389999999999986,74,58,2.87,RU,1669892812
411,deutschlandsberg,46.8153,15.2222,3.840000000000032,92,100,0.97,AT,1669892885
412,port blair,11.6667,92.75,27.410000000000025,79,80,3.22,IN,1669892885
413,alugan,12.2188,125.4808,27.140000000000043,86,100,6.31,PH,1669892885
414,amahai,-3.3333,128.9167,27.120000000000005,78,94,1.09,ID,1669892886
415,satuk,41.2263,32.3836,10.879999999999995,55,71,1.11,TR,1669892886
416,ocampo,21.65,-101.5,11.5,85,90,6.35,MX,1669892886
417,beisfjord,68.3751,17.5988,1.0300000000000296,94,94,1.78,NO,1669892886
418,zhezkazgan,47.8043,67.7144,-7.009999999999991,86,100,4.0,KZ,1669892705
419,prado,-17.3411,-39.2208,26.680000000000007,75,100,0.1,BR,1669892887
420,tura,25.5198,90.2201,19.53000000000003,84,0,1.38,IN,1669892887
421,mutoko,-17.397,32.2268,27.260000000000048,26,0,0.77,ZW,1669892887
422,gulu,2.7746,32.299,30.54000000000002,30,93,3.65,UG,1669892887
423,beibei,29.8256,106.4339,7.430000000000007,83,100,1.15,CN,1669892887
424,iracoubo,5.4802,-53.2011,25.600000000000023,85,81,4.49,GF,1669892888
425,matara,5.9485,80.5353,27.150000000000034,76,92,1.63,LK,1669892888
426,kruisfontein,-34.0033,24.7314,24.939999999999998,42,45,6.32,ZA,1669892888
427,soyo,-6.1349,12.3689,28.410000000000025,69,100,1.85,AO,1669892888
428,ekhabi,53.5102,142.9671,-19.18999999999997,90,99,8.4,RU,1669892889
429,saint-augustin,51.226,-58.6502,-1.1299999999999955,77,99,7.55,CA,1669892889
430,pueblo,38.2545,-104.6091,5.270000000000039,67,0,1.54,US,1669892889
431,honningsvag,70.9821,25.9704,2.8600000000000136,75,75,4.63,NO,1669892649
432,tuatapere,-46.1333,167.6833,8.420000000000016,76,33,4.65,NZ,1669892890
433,baykit,61.67,96.37,-28.559999999999974,99,59,1.71,RU,1669892890
434,bandarbeyla,9.4942,50.8122,27.78000000000003,70,19,9.46,SO,1669892891
435,someren,51.3823,5.7105,7.270000000000039,83,99,3.54,NL,1669892891
436,shahr-e babak,30.1165,55.1186,16.340000000000032,25,0,2.85,IR,1669892654
437,riosucio,5.4216,-75.7032,12.930000000000007,97,54,0.81,CO,1669892892
438,biltine,14.5333,20.9167,34.60000000000002,14,100,3.19,TD,1669892892
439,rudbar,30.15,62.6,19.090000000000032,29,100,3.92,AF,1669892892
440,krasnoselkup,65.7,82.4667,-19.619999999999976,99,96,4.04,RU,1669892893
441,los llanos de aridane,28.6585,-17.9182,19.860000000000014,76,20,2.06,ES,1669892893
442,alanya,36.5438,31.9998,22.07000000000005,70,78,3.69,TR,1669892893
443,severodvinsk,64.5635,39.8302,-7.939999999999998,83,100,2.59,RU,1669892825
444,richards bay,-28.783,32.0377,30.82000000000005,42,37,6.77,ZA,1669892894
445,thio,-21.6167,166.2167,24.980000000000018,83,78,2.42,NC,1669892894
446,ponta delgada,37.7333,-25.6667,16.400000000000034,77,75,4.63,PT,1669892695
447,rongcheng,30.634,117.8517,-0.42999999999995,91,100,0.92,CN,1669892895
448,songea,-10.6833,35.65,18.470000000000027,89,100,1.17,TZ,1669892895
449,qiongshan,20.0058,110.3542,20.04000000000002,86,100,7.73,CN,1669892895
450,katangli,51.7102,143.2326,-24.48999999999998,97,58,3.92,RU,1669892895
451,alirajpur,22.3031,74.3546,28.100000000000023,25,0,2.96,IN,1669892896
452,yeppoon,-23.1333,150.7333,20.879999999999995,79,100,2.68,AU,1669892896
453,novyy svit,47.8059,38.0211,2.0500000000000114,35,84,8.88,UA,1669892896
454,sao jose da coroa grande,-8.8978,-35.1478,27.620000000000005,68,77,5.35,BR,1669892896
455,seoul,37.5683,126.9778,-2.339999999999975,43,24,4.32,KR,1669892797
456,hervey bay,-25.2986,152.8535,17.79000000000002,85,100,8.05,AU,1669892897
457,penalva,-3.2942,-45.1736,26.870000000000005,78,82,1.74,BR,1669892897
458,ponta do sol,32.6667,-17.1,22.060000000000002,72,27,1.93,PT,1669892898
459,atambua,-9.1061,124.8925,24.58000000000004,86,98,1.17,ID,1669892898
460,san patricio,28.017,-97.5169,11.930000000000007,72,17,4.52,US,1669892898
461,komsomolskiy,40.4272,71.7189,9.400000000000034,66,75,3.09,UZ,1669892899
462,tongren,27.7172,109.1853,0.1500000000000341,86,100,1.87,CN,1669892899
463,thinadhoo,0.5333,72.9333,27.33000000000004,64,75,2.62,MV,1669892900
464,chuncheng,22.1731,111.7886,12.460000000000036,81,100,3.88,CN,1669892900
465,ihosy,-22.4,46.1167,30.02000000000004,38,95,3.16,MG,1669892900
466,mount vernon,40.9126,-73.8371,3.2700000000000387,52,0,9.26,US,1669892900
467,mecca,21.4267,39.8261,29.890000000000043,46,10,3.39,SA,1669892654
468,porto novo,6.4965,2.6036,31.890000000000043,51,42,2.12,BJ,1669892632
469,yambio,4.5721,28.3955,31.52000000000004,45,62,1.37,SS,1669892901
470,tiznit,29.5833,-9.5,14.560000000000002,65,45,2.22,MA,1669892902
471,northam,51.0333,-4.2167,8.140000000000043,77,28,2.51,GB,1669892902
472,norsup,-16.0667,167.3833,27.620000000000005,82,99,3.5,VU,1669892902
473,otuzco,-7.9,-78.5833,7.7000000000000455,79,99,0.78,PE,1669892902
474,virginia beach,36.8529,-75.978,6.680000000000007,49,0,4.63,US,1669892782
475,berlevag,70.8578,29.0864,0.0,86,75,3.09,NO,1669892903
476,batagay-alyta,67.8006,130.4114,-23.619999999999976,97,100,4.75,RU,1669892903
477,tazovskiy,67.4667,78.7,-19.629999999999967,98,100,3.86,RU,1669892904
478,middletown,39.5151,-84.3983,-3.5399999999999636,79,0,1.54,US,1669892905
479,bara,10.3744,10.7288,32.07000000000005,14,36,2.11,NG,1669892905
480,buala,-8.145,159.5921,26.379999999999995,85,98,3.26,SB,1669892905
481,bam,29.106,58.357,20.720000000000027,21,0,3.14,IR,1669892906
482,port hardy,50.6996,-127.4199,-6.3700000000000045,62,9,2.92,CA,1669892906
483,walvis bay,-22.9575,14.5053,18.939999999999998,63,44,6.21,NA,1669892906
484,san felipe,10.3399,-68.7425,20.970000000000027,98,74,1.4,VE,1669892906
485,cockburn town,21.4612,-71.1419,26.660000000000025,70,11,8.1,TC,1669892907
486,manavalakurichi,8.1333,77.3,28.410000000000025,66,100,0.95,IN,1669892907
487,santa isabel,-23.3156,-46.2214,20.610000000000014,81,88,1.35,BR,1669892907
488,mankapur,27.0333,82.2333,22.610000000000014,34,0,1.99,IN,1669892908
489,fort portal,0.6617,30.2748,23.450000000000045,60,95,1.61,UG,1669892908
490,spentrup,56.537,10.0379,3.8600000000000136,80,99,3.76,DK,1669892908
491,alofi,-19.0595,-169.9187,25.930000000000007,79,72,0.47,NU,1669892682
492,tortoli,39.9256,9.6572,13.680000000000007,66,54,1.38,IT,1669892909
493,katsuura,35.1333,140.3,12.189999999999998,84,100,6.2,JP,1669892909
494,tiarei,-17.5333,-149.3333,24.010000000000048,82,78,7.16,PF,1669892909
495,vanimo,-2.6741,141.3028,25.200000000000045,90,100,2.92,PG,1669892910
496,ulaanbaatar,47.9077,106.8832,-29.92999999999998,69,0,2.0,MN,1669892910
497,the pas,53.8251,-101.2541,-23.98999999999998,70,100,2.06,CA,1669892910
498,longonjo,-12.9067,15.2533,27.5,48,60,2.6,AO,1669892910
499,severo-kurilsk,50.6789,156.125,-2.069999999999993,64,86,8.95,RU,1669892911
500,santa cruz,-17.8,-63.1667,24.03000000000003,64,75,6.17,BO,1669892727
501,kingman,35.1894,-114.053,7.53000000000003,67,0,2.57,US,1669892911
502,port arthur,38.8,121.2667,-0.8799999999999955,49,85,6.97,CN,1669892912
503,fort-shevchenko,44.5086,50.263,2.1899999999999977,34,0,7.21,KZ,1669892912
504,daigo,36.7667,140.35,5.210000000000036,96,100,0.54,JP,1669892913
505,brae,60.3964,-1.353,8.710000000000036,89,100,11.57,GB,1669892724
506,izazi,-7.2,35.7333,34.69,22,67,2.96,TZ,1669892913
507,darhan,49.4867,105.9228,-21.69999999999999,91,2,1.7,MN,1669892914
508,moussoro,13.6408,16.4901,31.170000000000016,12,96,5.02,TD,1669892914
509,milledgeville,33.0801,-83.2321,3.6000000000000227,70,0,2.57,US,1669892915
510,acoyapa,11.9703,-85.1711,22.140000000000043,93,96,4.77,NI,1669892915
511,camargo,27.6667,-105.1667,11.379999999999995,60,0,3.37,MX,1669892915
512,manali,13.1667,80.2667,30.05000000000001,74,46,4.72,IN,1669892897
513,szany,47.4642,17.304,5.150000000000034,75,0,1.03,HU,1669892916
514,xingyi,24.1877,102.817,14.910000000000025,70,8,1.74,CN,1669892916
515,awbari,26.5921,12.7805,18.840000000000032,20,0,2.7,LY,1669892806
516,dekar,-21.5333,21.9333,32.700000000000045,15,0,5.01,BW,1669892917
517,yar-sale,66.8333,70.8333,-21.49999999999997,92,11,3.54,RU,1669892917
518,dingle,10.9995,122.6711,25.140000000000043,89,79,3.55,PH,1669892918
519,zakamensk,50.3741,103.2863,-25.099999999999966,97,10,1.71,RU,1669892918
520,pacifica,37.6138,-122.4869,11.960000000000036,80,75,8.75,US,1669892918
521,marsh harbour,26.5412,-77.0636,24.74000000000001,75,22,3.04,BS,1669892918
522,mount isa,-20.7333,139.5,28.870000000000005,18,0,2.57,AU,1669892919
523,singleton,-32.5667,151.1833,16.100000000000023,75,100,1.79,AU,1669892919
524,letka,59.6011,49.4232,-6.699999999999989,97,95,0.85,RU,1669892919
525,villa carlos paz,-31.4241,-64.4978,17.99000000000001,56,100,1.79,AR,1669892920
526,barra do corda,-5.5,-45.25,25.010000000000048,88,86,2.05,BR,1669892920
527,nuevo progreso,23.1667,-97.95,16.930000000000007,88,99,4.96,MX,1669892921
528,iquique,-20.2208,-70.1431,17.02000000000004,74,9,2.16,CL,1669892921
529,taoudenni,22.6783,-3.9836,21.80000000000001,12,82,1.06,ML,1669892921
530,mayo,38.8876,-76.5119,3.8799999999999955,53,0,6.17,US,1669892921
531,seymchan,62.8833,152.4333,-30.649999999999977,100,100,0.76,RU,1669892922
532,itarema,-2.9248,-39.9167,28.140000000000043,66,82,7.1,BR,1669892922
533,rundu,-17.9333,19.7667,35.700000000000045,15,0,3.96,NA,1669892923
534,kieta,-6.2167,155.6333,26.200000000000045,84,100,1.29,PG,1669892923
535,weihe,32.9952,105.3247,-2.2999999999999545,58,31,1.44,CN,1669892923
536,fuerte olimpo,-21.0415,-57.8738,27.0,53,98,2.82,PY,1669892924
537,sabha,27.0377,14.4283,18.03000000000003,21,0,0.97,LY,1669892924
538,ostrovnoy,68.0531,39.5131,-1.7999999999999545,96,100,3.3,RU,1669892924
539,bokoro,12.3807,17.0568,32.710000000000036,12,100,5.22,TD,1669892925
540,corinth,37.9407,22.9573,17.160000000000025,74,85,3.14,GR,1669892925
541,itaueira,-7.6033,-43.0256,22.04000000000002,97,100,0.41,BR,1669892925
542,la libertad,-2.2333,-80.9,21.810000000000002,88,100,5.14,EC,1669892926
543,bucerias,20.75,-105.3333,21.100000000000023,85,27,0.85,MX,1669892926
544,hakkari,37.5833,44.1667,1.8799999999999955,93,75,2.06,TR,1669892927
545,magdagachi,53.45,125.8,-28.079999999999984,90,27,2.27,RU,1669892927
546,bonanza,14.0289,-84.591,19.840000000000032,100,100,1.19,NI,1669892927
547,portobelo,9.55,-79.65,23.950000000000045,83,15,4.28,PA,1669892882
548,dzerzhinskoye,56.8344,95.2283,-18.059999999999974,94,100,3.23,RU,1669892928
549,faya,18.3851,42.4509,23.29000000000002,42,2,2.07,SA,1669892928
550,buraydah,26.326,43.975,26.129999999999995,26,43,1.68,SA,1669892899
551,poya,-21.35,165.15,26.890000000000043,83,96,2.19,NC,1669892928
552,macklin,52.3334,-109.9348,-25.369999999999976,100,98,2.55,CA,1669892929
553,swift current,50.2834,-107.8014,-9.549999999999955,85,100,6.17,CA,1669892929
554,maxixe,-23.8597,35.3472,27.410000000000025,59,34,6.24,MZ,1669892930
555,boende,-0.2167,20.8667,30.08000000000004,55,98,1.35,CD,1669892931
556,acari,-15.4311,-74.6158,19.620000000000005,80,26,1.15,PE,1669892931
557,longkou,37.6508,120.3286,0.9200000000000159,50,100,7.63,CN,1669892931
558,manaus,-3.1019,-60.025,24.27000000000004,94,100,2.57,BR,1669892932
559,carlsbad,33.1581,-117.3506,13.580000000000041,75,100,1.54,US,1669892932
560,posse,-14.0931,-46.3694,22.340000000000032,81,68,1.54,BR,1669892932
561,galesong,-5.3166,119.3661,25.010000000000048,74,69,1.25,ID,1669892932
562,baishishan,43.5833,127.5667,-15.489999999999952,74,100,3.97,CN,1669892933
563,pervomayskiy,53.2485,40.2871,-2.829999999999984,60,100,2.7,RU,1669892895
564,otukpo,7.1913,8.1329,33.860000000000014,16,69,2.95,NG,1669892933
565,luanda,-8.8368,13.2343,27.27000000000004,70,87,3.55,AO,1669892761
566,vincennes,48.85,2.4333,6.470000000000027,90,100,5.66,FR,1669892934
567,moindou,-21.6924,165.677,27.910000000000025,73,92,2.26,NC,1669892934
568,hofn,64.2539,-15.2082,6.010000000000048,87,100,3.6,IS,1669892935
569,biak,-0.9131,122.8766,25.900000000000034,80,98,1.18,ID,1669892935
570,lata,40.1629,-8.3327,15.04000000000002,75,4,2.3,PT,1669892936
571,booue,-0.0921,11.9385,31.310000000000002,54,99,1.5,GA,1669892936
572,cascavel,-24.9558,-53.4553,21.090000000000032,77,3,2.59,BR,1669892884
573,derzhavinsk,51.1,66.3167,-12.189999999999998,79,100,7.32,KZ,1669892937
574,homer,59.6425,-151.5483,-1.0699999999999932,74,0,3.6,US,1669892937
575,takoradi,4.8845,-1.7554,28.99000000000001,68,69,3.18,GH,1669892937
